Time_sec,Q_deg,Qdot_deg_per_sec,Vertical_speed_SI,Altitude_MSL_SI,Height_AGL_SI,alpha_deg,IAS0_knots,IAS1_knots,TAS_SI,Left_aileron_deg,Right_aileron_deg,Elevator_deg,Rudder_deg,Roll_deg,Pitch_deg,Yaw_deg
771.3720092773438,-0.016156837344169617,-50.96058654785156,0.14111074805259705,119.59754943847656,119.78004455566406,1.7444448471069336,27.451417922973633,27.451417922973633,14.212929725646973,0.06519589573144913,-0.06519589573144913,1.8001055717468262,2.2941184043884277,0.16000474989414215,2.3130877017974854,330.0650329589844
771.3883666992188,0.008830566890537739,-10.939627647399902,0.1410999298095703,119.60462951660156,119.78705596923828,1.7453924417495728,27.451417922973633,27.451417922973633,14.212301254272461,0.06519589573144913,-0.06519589573144913,1.8001055717468262,2.2941184043884277,0.13277874886989594,2.3152761459350586,329.29217529296875
771.4115600585938,0.1630428433418274,12.547411918640137,0.14109623432159424,119.60693359375,119.78934478759766,1.7471023797988892,27.451417922973633,27.451417922973633,14.212224006652832,0.06519589573144913,-0.06519589573144913,1.8001055717468262,2.2941184043884277,0.13020727038383484,2.316833257675171,329.43115234375
771.4318237304688,0.2684125602245331,-45.72101974487305,0.14109571278095245,119.6102066040039,119.7925796508789,1.7511183023452759,27.451417922973633,27.451417922973633,14.212181091308594,0.06519589573144913,-0.06519589573144913,1.8001055717468262,2.2941184043884277,0.13912218809127808,2.3220345973968506,329.6459655761719
771.4503784179688,0.3599182367324829,53.28199768066406,0.14110586047172546,119.61308288574219,119.79542541503906,1.75472891330719,27.451417922973633,27.451417922973633,14.212178230285645,0.06519589573144913,-0.06519589573144913,1.8001055717468262,2.2941184043884277,0.15777115523815155,2.3274664878845215,329.82427978515625
771.4691772460938,0.21500545740127563,-37.060733795166016,0.14112690091133118,119.61572265625,119.79804229736328,1.7562992572784424,27.451417922973633,27.451417922973633,14.21217155456543,0.06519589573144913,-0.06519589573144913,1.8001055717468262,2.2941184043884277,0.180549755692482,2.3318932056427,329.9639587402344
771.4840698242188,0.2743971645832062,59.51432418823242,0.14116129279136658,119.618408203125,119.80070495605469,1.758043885231018,27.451417922973633,27.451417922973633,14.212156295776367,0.06519589573144913,-0.06519589573144913,1.8001055717468262,2.2941184043884277,0.20567625761032104,2.3358614444732666,330.0786437988281
771.5023803710938,0.10079607367515564,-39.507049560546875,0.14119796454906464,119.62055206298828,119.80282592773438,1.7575217485427856,27.451417922973633,27.451417922973633,14.21213436126709,0.06519589573144913,-0.06519589573144913,1.8001055717468262,2.2941184043884277,0.22555743157863617,2.3378961086273193,330.14947509765625
771.5175170898438,0.0723721981048584,15.225525856018066,0.14125370979309082,119.6231918334961,119.8054428100586,1.7569012641906738,27.451417922973633,27.451417922973633,14.212101936340332,0.06519589573144913,-0.06519589573144913,1.8001055717468262,2.2941184043884277,0.24848122894763947,2.3395485877990723,330.21173095703125
771.5321655273438,-0.011142593808472157,5.918710708618164,0.1413077712059021,119.6253890991211,119.8076171875,1.755309820175171,27.451417922973633,27.451417922973633,14.212065696716309,0.06519589573144913,-0.06519589573144913,1.8001055717468262,2.2941184043884277,0.2655007839202881,2.339839220046997,330.243896484375
771.5504760742188,0.027084700763225555,66.76105499267578,0.1413656324148178,119.62751770019531,119.80973052978516,1.753812551498413,27.451417922973633,27.451417922973633,14.21203327178955,0.06519589573144913,-0.06519589573144913,1.8001055717468262,2.2941184043884277,0.27979451417922974,2.339446544647217,330.25958251953125
771.5653686523438,0.033706873655319214,77.73137664794922,0.14144295454025269,119.63018035888672,119.81237030029297,1.7516330480575562,27.451417922973633,27.451417922973633,14.211991310119629,0.06519589573144913,-0.06519589573144913,1.8001055717468262,2.2941184043884277,0.2941717803478241,2.3384366035461426,330.2601013183594
771.5797729492188,0.0016447948291897774,71.9893569946289,0.1415080577135086,119.63235473632812,119.81452178955078,1.7500064373016357,27.451417922973633,27.451417922973633,14.211960792541504,0.06519589573144913,-0.06519589573144913,1.8001055717468262,2.2941184043884277,0.30284884572029114,2.3376386165618896,330.2474670410156
771.5988159179688,-0.0660543441772461,30.418535232543945,0.14157205820083618,119.63446044921875,119.81660461425781,1.74830162525177,27.451417922973633,27.451417922973633,14.211930274963379,0.06519589573144913,-0.06519589573144913,1.8001055717468262,2.2941184043884277,0.3086896538734436,2.3366692066192627,330.2260437011719
771.6129760742188,-0.097176194190979,8.51449203491211,0.14165665209293365,119.63723754882812,119.8193588256836,1.7463078498840332,27.451417922973633,27.451417922973633,14.211894035339355,0.06519589573144913,-0.06519589573144913,1.8001055717468262,2.2941184043884277,0.3126569390296936,2.3351337909698486,330.1869812011719
771.6295776367188,-0.09028248488903046,18.46933364868164,0.14171849191188812,119.63931274414062,119.8214111328125,1.7450443506240845,27.451417922973633,27.451417922973633,14.211867332458496,0.06519589573144913,-0.06519589573144913,1.8001055717468262,2.2941184043884277,0.31284821033477783,2.3338871002197266,330.1551513671875
771.6447143554688,-0.01368577778339386,68.73136901855469,0.14178892970085144,119.64173126220703,119.82381439208984,1.7441730499267578,27.451417922973633,27.451417922973633,14.211835861206055,0.06519589573144913,-0.06519589573144913,1.8001055717468262,2.2941184043884277,0.3103146255016327,2.332608699798584,330.1230163574219
771.6620483398438,-0.039315685629844666,34.48838424682617,0.1418505311012268,119.6439437866211,119.82599639892578,1.743355393409729,27.451417922973633,27.451417922973633,14.21180534362793,0.06519589573144913,-0.06519589573144913,1.8001055717468262,2.2941184043884277,0.30660566687583923,2.33166766166687,330.09991455078125
771.6779174804688,0.033336538821458817,68.70053100585938,0.14191801846027374,119.64646911621094,119.82850646972656,1.7432496547698975,27.451417922973633,27.451417922973633,14.211774826049805,0.06519589573144913,-0.06519589573144913,1.8001055717468262,2.2941184043884277,0.3017832338809967,2.330960512161255,330.0811462402344
771.6947631835938,0.04989232122898102,68.3535385131836,0.14197686314582825,119.6487808227539,119.83079528808594,1.7432862520217896,27.451417922973633,27.451417922973633,14.21174430847168,0.06519589573144913,-0.06519589573144913,1.8001055717468262,2.2941184043884277,0.29749587178230286,2.3306236267089844,330.0709533691406
771.7116088867188,0.04716041311621666,53.86151123046875,0.14203663170337677,119.65122985839844,119.83322143554688,1.74339759349823,27.451417922973633,27.451417922973633,14.211714744567871,0.06519589573144913,-0.06519589573144913,1.8001055717468262,2.2941184043884277,0.29356926679611206,2.3304412364959717,330.0670166015625
771.7296752929688,0.0825054943561554,67.70777130126953,0.1420939862728119,119.6536865234375,119.83565521240234,1.7438923120498657,27.451417922973633,27.451417922973633,14.211685180664062,0.06519589573144913,-0.06519589573144913,1.8001055717468262,2.2941184043884277,0.29054826498031616,2.330554962158203,330.0693664550781
771.7457885742188,0.035206135362386703,27.660802841186523,0.14215335249900818,119.65631103515625,119.8382568359375,1.7440640926361084,27.451417922973633,27.451417922973633,14.211655616760254,0.06519589573144913,-0.06519589573144913,1.8001055717468262,2.2941184043884277,0.28853514790534973,2.330716133117676,330.0777282714844
771.7623901367188,0.02889447659254074,5.57234001159668,0.14220473170280457,119.65865325927734,119.840576171875,1.7445369958877563,27.451417922973633,27.451417922973633,14.211629867553711,0.06519589573144913,-0.06519589573144913,1.8001055717468262,2.2941184043884277,0.28780531883239746,2.3311269283294678,330.0891418457031
771.7782592773438,0.10702294856309891,70.03582000732422,0.14225690066814423,119.66106414794922,119.84296417236328,1.7453391551971436,27.451417922973633,27.451417922973633,14.2116117477417,0.06519589573144913,-0.06519589573144913,1.8001055717468262,2.2941184043884277,0.28826048970222473,2.331620454788208,330.10198974609375
771.7948608398438,0.028724612668156624,17.135814666748047,0.14230597019195557,119.66337585449219,119.84524536132812,1.7454075813293457,27.451417922973633,27.451417922973633,14.211590766906738,0.06519589573144913,-0.06519589573144913,1.8001055717468262,2.2941184043884277,0.2898359000682831,2.332021474838257,330.110107421875
771.8114624023438,0.010699269361793995,3.6820569038391113,0.14235688745975494,119.66578674316406,119.84764099121094,1.745590090751648,27.451417922973633,27.451417922973633,14.211569786071777,0.06519589573144913,-0.06519589573144913,1.8001055717468262,2.2941184043884277,0.2917795479297638,2.3323349952697754,330.1141662597656
771.8292846679688,0.07559815794229507,70.23703002929688,0.14240752160549164,119.66820526123047,119.85002899169922,1.7458698749542236,27.451417922973633,27.451417922973633,14.211549758911133,0.06519589573144913,-0.06519589573144913,1.8001055717468262,2.2941184043884277,0.2933814525604248,2.332435369491577,330.115966796875
771.8453979492188,0.002857726998627186,22.86599349975586,0.14246121048927307,119.6707992553711,119.85260009765625,1.745365023612976,27.451417922973633,27.451417922973633,14.211523056030273,0.06519589573144913,-0.06519589573144913,1.8001055717468262,2.2941184043884277,0.29446542263031006,2.3322548866271973,330.11859130859375
771.8659057617188,0.0007393645937554538,6.140834331512451,0.14250905811786652,119.67314147949219,119.85492706298828,1.745296835899353,27.451417922973633,27.451417922973633,14.21149730682373,0.06519589573144913,-0.06519589573144913,1.8001055717468262,2.2941184043884277,0.29499784111976624,2.332233428955078,330.12420654296875
771.8822631835938,0.10089133679866791,71.43816375732422,0.14256934821605682,119.6761245727539,119.85787963867188,1.7457187175750732,27.451417922973633,27.451417922973633,14.211468696594238,0.06519589573144913,-0.06519589573144913,1.8001055717468262,2.2941184043884277,0.295950323343277,2.3323261737823486,330.1341247558594
771.8956909179688,0.03247315064072609,30.507413864135742,0.1426163911819458,119.67850494384766,119.86023712158203,1.7456384897232056,27.451417922973633,27.451417922973633,14.211447715759277,0.06519589573144913,-0.06519589573144913,1.8001055717468262,2.2941184043884277,0.29738813638687134,2.332559823989868,330.138916015625
771.9125366210938,0.014364928938448429,15.809342384338379,0.1426546722650528,119.68045806884766,119.86217498779297,1.745696783065796,27.451417922973633,27.451417922973633,14.211429595947266,0.06519589573144913,-0.06519589573144913,1.8001055717468262,2.2941184043884277,0.29864808917045593,2.3327369689941406,330.1400146484375
771.9303588867188,0.004334958735853434,14.768485069274902,0.14270234107971191,119.68290710449219,119.8646011352539,1.7456647157669067,27.451417922973633,27.451417922973633,14.211405754089355,0.06519589573144913,-0.06519589573144913,1.8001055717468262,2.2941184043884277,0.29982373118400574,2.3328051567077637,330.1401062011719
771.9498901367188,0.07865730673074722,69.34960174560547,0.14275221526622772,119.68550109863281,119.86717224121094,1.7459135055541992,27.451417922973633,27.451417922973633,14.21137809753418,0.06519589573144913,-0.06519589573144913,1.8001055717468262,2.2941184043884277,0.3003670871257782,2.332829475402832,330.1424255371094
771.9642944335938,0.005952776409685612,22.057815551757812,0.14280614256858826,119.68834686279297,119.86998748779297,1.745370864868164,27.451417922973633,27.451417922973633,14.211348533630371,0.06519589573144913,-0.06519589573144913,1.8001055717468262,2.2941184043884277,0.30073216557502747,2.3326146602630615,330.14971923828125
771.9862670898438,0.0069033922627568245,6.058006286621094,0.14284536242485046,119.69044494628906,119.87206268310547,1.7453988790512085,27.451417922973633,27.451417922973633,14.211328506469727,0.06519589573144913,-0.06519589573144913,1.8001055717468262,2.2941184043884277,0.30136287212371826,2.332676887512207,330.156005859375
772.0084838867188,0.09909278899431229,70.75226593017578,0.14290452003479004,119.69364166259766,119.87523651123047,1.7458205223083496,27.451417922973633,27.451417922973633,14.211302757263184,0.06519589573144913,-0.06519589573144913,1.8001055717468262,2.2941184043884277,0.30321064591407776,2.3327877521514893,330.1598205566406
772.0282592773438,0.003297386923804879,25.455821990966797,0.1429629772901535,119.6968765258789,119.87843322753906,1.745155930519104,27.451417922973633,27.451417922973633,14.211271286010742,0.06519589573144913,-0.06519589573144913,1.8001055717468262,2.2941184043884277,0.3047633767127991,2.3324787616729736,330.1595153808594
772.0465698242188,-0.00809877086430788,5.482663631439209,0.14301371574401855,119.69975280761719,119.88128662109375,1.7450109720230103,27.451417922973633,27.451417922973633,14.2112398147583,0.06519589573144913,-0.06519589573144913,1.8001055717468262,2.2941184043884277,0.30522292852401733,2.332341432571411,330.16204833984375
772.0614624023438,0.08449152857065201,70.48629760742188,0.14305977523326874,119.70242309570312,119.88392639160156,1.7453522682189941,27.451417922973633,27.451417922973633,14.211213111877441,0.06519589573144913,-0.06519589573144913,1.8001055717468262,2.2941184043884277,0.3054414987564087,2.3322982788085938,330.1690368652344
772.0785522460938,0.02586754597723484,22.817733764648438,0.14309614896774292,119.70458984375,119.88607788085938,1.745330572128296,27.451417922973633,27.451417922973633,14.21119499206543,0.06519589573144913,-0.06519589573144913,1.8001055717468262,2.2941184043884277,0.30599191784858704,2.332495927810669,330.176025390625
772.0949096679688,0.007192693185061216,3.6814584732055664,0.14313741028308868,119.70707702636719,119.88854217529297,1.745474934577942,27.451417922973633,27.451417922973633,14.211173057556152,0.06519589573144913,-0.06519589573144913,1.8001055717468262,2.2941184043884277,0.3073623478412628,2.3327345848083496,330.1802978515625
772.1176147460938,0.07258633524179459,69.98756408691406,0.1431766152381897,119.70945739746094,119.89089965820312,1.7457720041275024,27.451417922973633,27.451417922973633,14.21115493774414,0.06519589573144913,-0.06519589573144913,1.8001055717468262,2.2941184043884277,0.30871710181236267,2.3328022956848145,330.18115234375
772.1327514648438,-0.007101402152329683,23.194013595581055,0.1432301104068756,119.71276092529297,119.89417266845703,1.7448900938034058,27.451417922973633,27.451417922973633,14.211121559143066,0.06519589573144913,-0.06519589573144913,1.8001055717468262,2.2941184043884277,0.3099120259284973,2.332174777984619,330.1822814941406
772.1508178710938,-0.0003394533705431968,7.696548938751221,0.14326469600200653,119.7149658203125,119.89635467529297,1.7448803186416626,27.451417922973633,27.451417922973633,14.211099624633789,0.06519589573144913,-0.06519589573144913,1.8001055717468262,2.2941184043884277,0.3101847469806671,2.3320837020874023,330.1861572265625
772.1640014648438,0.09033152461051941,69.82437896728516,0.14330506324768066,119.71759796142578,119.89896392822266,1.7453793287277222,27.451417922973633,27.451417922973633,14.211074829101562,0.06519589573144913,-0.06519589573144913,1.8001055717468262,2.2941184043884277,0.31057387590408325,2.3321895599365234,330.1942443847656
772.1823120117188,0.03225722163915634,22.227062225341797,0.14333361387252808,119.71951293945312,119.9008560180664,1.7454807758331299,27.451417922973633,27.451417922973633,14.211058616638184,0.06519589573144913,-0.06519589573144913,1.8001055717468262,2.2941184043884277,0.3112984299659729,2.332508087158203,330.1997375488281
772.1974487304688,0.003854437731206417,2.611436128616333,0.14337289333343506,119.72217559814453,119.90350341796875,1.7456231117248535,27.451417922973633,27.451417922973633,14.211033821105957,0.06519589573144913,-0.06519589573144913,1.8001055717468262,2.2941184043884277,0.3128921389579773,2.332786798477173,330.2027893066406
772.2116088867188,0.05788939818739891,63.706016540527344,0.14340518414974213,119.72438049316406,119.90567779541016,1.7458152770996094,27.451417922973633,27.451417922973633,14.211015701293945,0.06519589573144913,-0.06519589573144913,1.8001055717468262,2.2941184043884277,0.3140484690666199,2.332793712615967,330.2030334472656
772.2304077148438,0.029211947694420815,41.03041076660156,0.1434348225593567,119.7264404296875,119.90772247314453,1.74567449092865,27.451417922973633,27.451417922973633,14.2109956741333,0.06519589573144913,-0.06519589573144913,1.8001055717468262,2.2941184043884277,0.31466275453567505,2.332773447036743,330.2041015625
772.2455444335938,0.021178357303142548,28.62257957458496,0.14347372949123383,119.72917938232422,119.91043090820312,1.7455198764801025,27.451417922973633,27.451417922973633,14.210968017578125,0.06519589573144913,-0.06519589573144913,1.8001055717468262,2.2941184043884277,0.3150234520435333,2.3326563835144043,330.20965576171875
772.2616577148438,0.009858840145170689,5.536081314086914,0.14350444078445435,119.73137664794922,119.91261291503906,1.7455899715423584,27.451417922973633,27.451417922973633,14.21094799041748,0.06519589573144913,-0.06519589573144913,1.8001055717468262,2.2941184043884277,0.315438836812973,2.332789897918701,330.216552734375
772.2782592773438,0.07913456857204437,69.79611206054688,0.14353683590888977,119.73372650146484,119.91493225097656,1.7459642887115479,27.451417922973633,27.451417922973633,14.210928916931152,0.06519589573144913,-0.06519589573144913,1.8001055717468262,2.2941184043884277,0.3165459632873535,2.3329362869262695,330.22174072265625
772.2948608398438,0.006395891308784485,22.438438415527344,0.1435697376728058,119.73614501953125,119.91732788085938,1.745627999305725,27.451417922973633,27.451417922973633,14.210906982421875,0.06519589573144913,-0.06519589573144913,1.8001055717468262,2.2941184043884277,0.31797048449516296,2.3328981399536133,330.22332763671875
772.3117065429688,-0.007716440130025148,5.307264804840088,0.14360220730304718,119.73855590820312,119.91972351074219,1.7455161809921265,27.451417922973633,27.451417922973633,14.210883140563965,0.06519589573144913,-0.06519589573144913,1.8001055717468262,2.2941184043884277,0.31902623176574707,2.3328495025634766,330.2236633300781
772.3302612304688,0.06880389153957367,69.63765716552734,0.14363476634025574,119.74101257324219,119.92215728759766,1.7457075119018555,27.451417922973633,27.451417922973633,14.210860252380371,0.06519589573144913,-0.06519589573144913,1.8001055717468262,2.2941184043884277,0.31949588656425476,2.3327414989471436,330.2264404296875
772.3453979492188,0.010579179041087627,25.009841918945312,0.1436697393655777,119.74371337890625,119.9248275756836,1.7452926635742188,27.451417922973633,27.451417922973633,14.210832595825195,0.06519589573144913,-0.06519589573144913,1.8001055717468262,2.2941184043884277,0.3198595345020294,2.3325250148773193,330.2337341308594
772.3624877929688,0.008572224527597427,5.948996067047119,0.14369769394397736,119.74591827392578,119.92701721191406,1.74538254737854,27.451417922973633,27.451417922973633,14.21081256866455,0.06519589573144913,-0.06519589573144913,1.8001055717468262,2.2941184043884277,0.32055336236953735,2.3326101303100586,330.24053955078125
772.3783569335938,0.08157297968864441,69.86547088623047,0.1437288075685501,119.74840545654297,119.92947387695312,1.745804786682129,27.451417922973633,27.451417922973633,14.210794448852539,0.06519589573144913,-0.06519589573144913,1.8001055717468262,2.2941184043884277,0.32199519872665405,2.3327479362487793,330.2442932128906
772.3947143554688,0.009224695153534412,22.664274215698242,0.14375700056552887,119.7507095336914,119.9317626953125,1.7455694675445557,27.451417922973633,27.451417922973633,14.210776329040527,0.06519589573144913,-0.06519589573144913,1.8001055717468262,2.2941184043884277,0.32328885793685913,2.332777738571167,330.24493408203125
772.4118041992188,-0.005356276407837868,5.39335298538208,0.14378561079502106,119.75308990478516,119.93412017822266,1.7455060482025146,27.451417922973633,27.451417922973633,14.2107515335083,0.06519589573144913,-0.06519589573144913,1.8001055717468262,2.2941184043884277,0.3241092264652252,2.3327629566192627,330.24578857421875
772.4291381835938,0.07348313182592392,69.78733825683594,0.14381511509418488,119.75557708740234,119.93658447265625,1.745754361152649,27.451417922973633,27.451417922973633,14.21072769165039,0.06519589573144913,-0.06519589573144913,1.8001055717468262,2.2941184043884277,0.3244476020336151,2.3326988220214844,330.2502136230469
772.4472045898438,0.013794247061014175,23.751304626464844,0.14384426176548004,119.75810241699219,119.9390869140625,1.745460033416748,27.451417922973633,27.451417922973633,14.210701942443848,0.06519589573144913,-0.06519589573144913,1.8001055717468262,2.2941184043884277,0.32487714290618896,2.3326191902160645,330.2580261230469
772.4645385742188,0.0030755309853702784,4.152617454528809,0.1438741683959961,119.76073455810547,119.94168853759766,1.7455239295959473,27.451417922973633,27.451417922973633,14.210681915283203,0.06519589573144913,-0.06519589573144913,1.8001055717468262,2.2941184043884277,0.32607129216194153,2.332719326019287,330.2647399902344
772.4835815429688,0.07649931311607361,70.3781509399414,0.14390240609645844,119.76325225830078,119.94418334960938,1.7458469867706299,27.451417922973633,27.451417922973633,14.210661888122559,0.06519589573144913,-0.06519589573144913,1.8001055717468262,2.2941184043884277,0.3276243805885315,2.332751750946045,330.26678466796875
772.5016479492188,-0.0015820125117897987,22.955833435058594,0.14393271505832672,119.76602935791016,119.94692993164062,1.7453224658966064,27.446666717529297,27.446666717529297,14.210636138916016,0.06519589573144913,-0.06519589573144913,1.8001055717468262,2.2941184043884277,0.3289332985877991,2.3324809074401855,330.26702880859375
772.5187377929688,-0.007132479455322027,5.913336277008057,0.14396068453788757,119.7686538696289,119.94953155517578,1.74522864818573,27.446666717529297,27.446666717529297,14.210610389709473,0.06519589573144913,-0.06519589573144913,1.8001055717468262,2.2941184043884277,0.3294329047203064,2.3323471546173096,330.2698974609375
772.5316772460938,0.07820118963718414,69.88545227050781,0.14398647844791412,119.7711410522461,119.9520034790039,1.7455662488937378,27.446666717529297,27.446666717529297,14.210588455200195,0.06519589573144913,-0.06519589573144913,1.8001055717468262,2.2941184043884277,0.32972148060798645,2.3323113918304443,330.27655029296875
772.5499877929688,0.028406094759702682,24.49551773071289,0.14400526881217957,119.77302551269531,119.95386505126953,1.7456004619598389,27.446666717529297,27.446666717529297,14.21057415008545,0.06519589573144913,-0.06519589573144913,1.8001055717468262,2.2941184043884277,0.3301904797554016,2.332517147064209,330.28265380859375
772.5661010742188,0.0032028215937316418,3.132683277130127,0.1440315544605255,119.77568817138672,119.95649719238281,1.7457164525985718,27.446666717529297,27.446666717529297,14.210552215576172,0.06519589573144913,-0.06519589573144913,1.8001055717468262,2.2941184043884277,0.3316255211830139,2.332730770111084,330.2873229980469
772.5795288085938,0.06829449534416199,69.87493133544922,0.14405454695224762,119.77803039550781,119.95882415771484,1.7459716796875,27.446666717529297,27.446666717529297,14.210535049438477,0.06519589573144913,-0.06519589573144913,1.8001055717468262,2.2941184043884277,0.332936555147171,2.3327372074127197,330.2882995605469
772.5980834960938,0.010746261104941368,25.332481384277344,0.14407318830490112,119.77998352050781,119.96076202392578,1.7457762956619263,27.446666717529297,27.446666717529297,14.210516929626465,0.06519589573144913,-0.06519589573144913,1.8001055717468262,2.2941184043884277,0.3336613178253174,2.3327555656433105,330.2890625
772.6141967773438,-0.005947214085608721,4.890778064727783,0.14409862458705902,119.78268432617188,119.96343231201172,1.745650053024292,27.446666717529297,27.446666717529297,14.210490226745605,0.06519589573144913,-0.06519589573144913,1.8001055717468262,2.2941184043884277,0.3340951204299927,2.3326873779296875,330.2938232421875
772.6281127929688,0.07342559844255447,70.14292907714844,0.1441204994916916,119.78502655029297,119.96575164794922,1.7459094524383545,27.446666717529297,27.446666717529297,14.210469245910645,0.06519589573144913,-0.06519589573144913,1.8001055717468262,2.2941184043884277,0.33450087904930115,2.3326430320739746,330.3011169433594
772.6459350585938,0.019643906503915787,24.006519317626953,0.14413891732692719,119.78705596923828,119.96775817871094,1.7458014488220215,27.446666717529297,27.446666717529297,14.210453033447266,0.06519589573144913,-0.06519589573144913,1.8001055717468262,2.2941184043884277,0.3353293240070343,2.33274507522583,330.3067626953125
772.6620483398438,-0.0025458657182753086,3.757094383239746,0.14416220784187317,119.78964233398438,119.97032928466797,1.7457972764968872,27.446666717529297,27.446666717529297,14.210431098937988,0.06519589573144913,-0.06519589573144913,1.8001055717468262,2.2941184043884277,0.33688297867774963,2.3328330516815186,330.3097229003906
772.6781616210938,0.06387782841920853,69.78185272216797,0.14418311417102814,119.7919921875,119.97264862060547,1.745985746383667,27.446666717529297,27.446666717529297,14.21041202545166,0.06519589573144913,-0.06519589573144913,1.8001055717468262,2.2941184043884277,0.33807843923568726,2.3327627182006836,330.3102111816406
772.6947631835938,0.004499123431742191,26.02208709716797,0.14420343935489655,119.7943344116211,119.97496795654297,1.7456029653549194,27.446666717529297,27.446666717529297,14.210389137268066,0.06519589573144913,-0.06519589573144913,1.8001055717468262,2.2941184043884277,0.3387177288532257,2.3325812816619873,330.3120422363281
772.7116088867188,-0.0018342400435358286,6.148993015289307,0.1442238986492157,119.7967529296875,119.97736358642578,1.7455406188964844,27.446666717529297,27.446666717529297,14.210369110107422,0.06519589573144913,-0.06519589573144913,1.8001055717468262,2.2941184043884277,0.339022159576416,2.3325107097625732,330.31756591796875
772.7291870117188,0.0803271234035492,70.01783752441406,0.14424438774585724,119.79920196533203,119.97978973388672,1.7458984851837158,27.446666717529297,27.446666717529297,14.210349082946777,0.06519589573144913,-0.06519589573144913,1.8001055717468262,2.2941184043884277,0.3395701050758362,2.3325352668762207,330.3256530761719
772.7472534179688,0.010608893819153309,21.95263671875,0.14426518976688385,119.8017578125,119.9823226928711,1.7456269264221191,27.446666717529297,27.446666717529297,14.21033000946045,0.06519589573144913,-0.06519589573144913,1.8001055717468262,2.2941184043884277,0.34095144271850586,2.3325068950653076,330.33123779296875
772.7653198242188,-0.006111001130193472,4.197041988372803,0.14428608119487762,119.80438232421875,119.98492431640625,1.745605707168579,27.446666717529297,27.446666717529297,14.210309028625488,0.06519589573144913,-0.06519589573144913,1.8001055717468262,2.2941184043884277,0.34254199266433716,2.332517385482788,330.3327941894531
772.7831420898438,0.07144027203321457,70.24345397949219,0.14430658519268036,119.80701446533203,119.9875259399414,1.7458264827728271,27.446666717529297,27.446666717529297,14.21028995513916,0.06519589573144913,-0.06519589573144913,1.8001055717468262,2.2941184043884277,0.343607097864151,2.3323943614959717,330.33343505859375
772.8012084960938,0.005652588326483965,24.07152557373047,0.14432592689990997,119.80960083007812,119.99009704589844,1.745436191558838,27.446666717529297,27.446666717529297,14.2102632522583,0.06519589573144913,-0.06519589573144913,1.8001055717468262,2.2941184043884277,0.34402406215667725,2.3321917057037354,330.33758544921875
772.8192749023438,0.0015427963808178902,5.24959135055542,0.14434495568275452,119.8122329711914,119.9926986694336,1.7454618215560913,27.446666717529297,27.446666717529297,14.21023941040039,0.06519589573144913,-0.06519589573144913,1.8001055717468262,2.2941184043884277,0.344417005777359,2.3321750164031982,330.3457336425781
772.8373413085938,0.08751774579286575,70.70915222167969,0.14436358213424683,119.81485748291016,119.99529266357422,1.7459051609039307,27.446666717529297,27.446666717529297,14.210220336914062,0.06519589573144913,-0.06519589573144913,1.8001055717468262,2.2941184043884277,0.3455295264720917,2.332249402999878,330.35345458984375
772.8546752929688,0.005277007818222046,20.074371337890625,0.14438150823116302,119.8174819946289,119.9979019165039,1.7456039190292358,27.446666717529297,27.446666717529297,14.210201263427734,0.06519589573144913,-0.06519589573144913,1.8001055717468262,2.2941184043884277,0.3472132086753845,2.332216262817383,330.35638427734375
772.8678588867188,-0.007831609807908535,4.737166881561279,0.14439818263053894,119.82000732421875,120.0003890991211,1.7455697059631348,27.446666717529297,27.446666717529297,14.21018123626709,0.06519589573144913,-0.06519589573144913,1.8001055717468262,2.2941184043884277,0.3485197424888611,2.332183361053467,330.35687255859375
772.8861694335938,0.05133173614740372,68.3449935913086,0.144410640001297,119.8219223022461,120.00228881835938,1.7457520961761475,27.446666717529297,27.446666717529297,14.210163116455078,0.06519589573144913,-0.06519589573144913,1.8001055717468262,2.2941184043884277,0.34905609488487244,2.3320977687835693,330.3582763671875
772.9020385742188,0.009810498915612698,29.1715145111084,0.14442741870880127,119.8245849609375,120.00492095947266,1.7453163862228394,27.446666717529297,27.446666717529297,14.2101411819458,0.06519589573144913,-0.06519589573144913,1.8001055717468262,2.2941184043884277,0.34946441650390625,2.331733465194702,330.3642578125
772.9157104492188,0.006855998653918505,6.4131669998168945,0.14444118738174438,119.82688903808594,120.00720977783203,1.7454050779342651,27.446666717529297,27.446666717529297,14.210124969482422,0.06519589573144913,-0.06519589573144913,1.8001055717468262,2.2941184043884277,0.34997501969337463,2.3317623138427734,330.3719482421875
772.9342651367188,0.06945843994617462,68.59649658203125,0.14445267617702484,119.82887268066406,120.0091781616211,1.745803713798523,27.446666717529297,27.446666717529297,14.210112571716309,0.06519589573144913,-0.06519589573144913,1.8001055717468262,2.2941184043884277,0.3509504199028015,2.3318772315979004,330.3768615722656
772.9496459960938,0.006281642708927393,25.383413314819336,0.14446790516376495,119.83157348632812,120.01184844970703,1.7454345226287842,27.446666717529297,27.446666717529297,14.210092544555664,0.06519589573144913,-0.06519589573144913,1.8001055717468262,2.2941184043884277,0.3526606559753418,2.3316686153411865,330.3792724609375
772.9638061523438,-0.004103412851691246,6.362468242645264,0.1444798856973648,119.83380889892578,120.0140609741211,1.7454341650009155,27.446666717529297,27.446666717529297,14.210078239440918,0.06519589573144913,-0.06519589573144913,1.8001055717468262,2.2941184043884277,0.3537285327911377,2.331634998321533,330.37982177734375
772.9821166992188,0.05998626723885536,68.20832824707031,0.1444905400276184,119.83586120605469,120.01609802246094,1.745711088180542,27.446666717529297,27.446666717529297,14.210062026977539,0.06519589573144913,-0.06519589573144913,1.8001055717468262,2.2941184043884277,0.35421761870384216,2.3316032886505127,330.3821105957031
772.9977416992188,0.012778212316334248,27.753599166870117,0.14450378715991974,119.8385238647461,120.01873779296875,1.745367407798767,27.446666717529297,27.446666717529297,14.210040092468262,0.06519589573144913,-0.06519589573144913,1.8001055717468262,2.2941184043884277,0.3546334505081177,2.331346035003662,330.3890380859375
773.0116577148438,0.008408461697399616,5.993703365325928,0.14451450109481812,119.84078979492188,120.02098083496094,1.7454935312271118,27.446666717529297,27.446666717529297,14.210026741027832,0.06519589573144913,-0.06519589573144913,1.8001055717468262,2.2941184043884277,0.3552785813808441,2.331421136856079,330.3966369628906
773.0302124023438,0.0696534737944603,68.70695495605469,0.1445237696170807,119.84281158447266,120.02298736572266,1.745893955230713,27.446666717529297,27.446666717529297,14.210015296936035,0.06519589573144913,-0.06519589573144913,1.8001055717468262,2.2941184043884277,0.3564015030860901,2.331543445587158,330.4009704589844
773.0455932617188,0.0040774960070848465,25.117361068725586,0.14453569054603577,119.84550476074219,120.02565002441406,1.7454909086227417,27.446666717529297,27.446666717529297,14.209999084472656,0.06519589573144913,-0.06519589573144913,1.8001055717468262,2.2941184043884277,0.3580974042415619,2.3313112258911133,330.40277099609375
773.0614624023438,-0.005336546804755926,6.442489147186279,0.14454497396945953,119.84774017333984,120.02786254882812,1.745470404624939,27.446666717529297,27.446666717529297,14.209983825683594,0.06519589573144913,-0.06519589573144913,1.8001055717468262,2.2941184043884277,0.3590603470802307,2.3312487602233887,330.4034729003906
773.0780639648438,0.06760746240615845,68.83198547363281,0.14455416798591614,119.85004425048828,120.03013610839844,1.7457737922668457,27.446666717529297,27.446666717529297,14.209968566894531,0.06519589573144913,-0.06519589573144913,1.8001055717468262,2.2941184043884277,0.3595057725906372,2.3312017917633057,330.40692138671875
773.0949096679688,0.015631699934601784,26.00856590270996,0.14456318318843842,119.85244750976562,120.03252410888672,1.7455637454986572,27.446666717529297,27.446666717529297,14.209948539733887,0.06519589573144913,-0.06519589573144913,1.8001055717468262,2.2941184043884277,0.35987216234207153,2.331115961074829,330.4139404296875
773.1117553710938,0.006335459649562836,4.8248291015625,0.14457197487354279,119.85489654541016,120.03495025634766,1.745680570602417,27.446666717529297,27.446666717529297,14.209935188293457,0.06519589573144913,-0.06519589573144913,1.8001055717468262,2.2941184043884277,0.36071905493736267,2.3312137126922607,330.421875
773.1337280273438,0.07811201363801956,70.10150909423828,0.14458055794239044,119.85733795166016,120.03736877441406,1.7460805177688599,27.446666717529297,27.446666717529297,14.209921836853027,0.06519589573144913,-0.06519589573144913,1.8001055717468262,2.2941184043884277,0.3622114956378937,2.331298828125,330.4258728027344
773.1481323242188,-0.009096654132008553,21.395483016967773,0.1445913165807724,119.86052703857422,120.04052734375,1.7453479766845703,27.446666717529297,27.446666717529297,14.2099027633667,0.06519589573144913,-0.06519589573144913,1.8001055717468262,2.2941184043884277,0.36405012011528015,2.330792188644409,330.4269104003906
773.1674194335938,-0.006820362061262131,7.522946834564209,0.14459773898124695,119.86261749267578,120.04259490966797,1.7453161478042603,27.446666717529297,27.446666717529297,14.209887504577637,0.06519589573144913,-0.06519589573144913,1.8001055717468262,2.2941184043884277,0.3646836280822754,2.3306570053100586,330.42822265625
773.1852416992188,0.08644000440835953,69.88919830322266,0.14460566639900208,119.86541748046875,120.04536437988281,1.7457506656646729,27.446666717529297,27.446666717529297,14.209869384765625,0.06519589573144913,-0.06519589573144913,1.8001055717468262,2.2941184043884277,0.3650360703468323,2.3306150436401367,330.43450927734375
773.2033081054688,0.01645929366350174,20.987346649169922,0.14461210370063782,119.86799621582031,120.04792022705078,1.7456070184707642,27.446666717529297,27.446666717529297,14.209854125976562,0.06519589573144913,-0.06519589573144913,1.8001055717468262,2.2941184043884277,0.3656080961227417,2.330656051635742,330.44354248046875
773.2213745117188,0.0035670935176312923,3.351105213165283,0.14461834728717804,119.87062072753906,120.05052185058594,1.7457666397094727,27.446666717529297,27.446666717529297,14.209840774536133,0.06519589573144913,-0.06519589573144913,1.8001055717468262,2.2941184043884277,0.3670209050178528,2.3308074474334717,330.4500427246094
773.2391967773438,0.0784163698554039,70.77383422851562,0.1446244716644287,119.87323760986328,120.05310821533203,1.7461177110671997,27.446666717529297,27.446666717529297,14.209829330444336,0.06519589573144913,-0.06519589573144913,1.8001055717468262,2.2941184043884277,0.36869579553604126,2.3308205604553223,330.45208740234375
773.2616577148438,-0.0016609631711617112,21.506237030029297,0.14462991058826447,119.87582397460938,120.05567169189453,1.7456914186477661,27.446666717529297,27.446666717529297,14.209813117980957,0.06519589573144913,-0.06519589573144913,1.8001055717468262,2.2941184043884277,0.3698602318763733,2.3306312561035156,330.4529724121094
773.2780151367188,-0.012358296662569046,5.958883762359619,0.14463625848293304,119.87907409667969,120.05889129638672,1.7455017566680908,27.446666717529297,27.446666717529297,14.209789276123047,0.06519589573144913,-0.06519589573144913,1.8001055717468262,2.2941184043884277,0.3704354763031006,2.3303754329681396,330.458984375
773.2948608398438,0.07297324389219284,69.76643371582031,0.14464056491851807,119.8814468383789,120.06124114990234,1.7458045482635498,27.446666717529297,27.446666717529297,14.209778785705566,0.06519589573144913,-0.06519589573144913,1.8001055717468262,2.2941184043884277,0.3708968460559845,2.3302745819091797,330.4669494628906
773.3117065429688,0.015412083826959133,24.29307746887207,0.14464439451694489,119.8838882446289,120.06365966796875,1.745631217956543,27.446666717529297,27.446666717529297,14.20976734161377,0.06519589573144913,-0.06519589573144913,1.8001055717468262,2.2941184043884277,0.37207314372062683,2.330244541168213,330.47381591796875
773.3292846679688,-0.0006596726598218083,4.580060005187988,0.14464783668518066,119.8863296508789,120.06607055664062,1.7457106113433838,27.446666717529297,27.446666717529297,14.209757804870605,0.06519589573144913,-0.06519589573144913,1.8001055717468262,2.2941184043884277,0.37363097071647644,2.330314874649048,330.4765930175781
774.4115600585938,0.001696951687335968,24.599123001098633,0.1442689746618271,120.04251098632812,120.22071075439453,1.7459269762039185,27.446666717529297,27.446666717529297,14.209454536437988,0.06519589573144913,-0.06519589573144913,1.8001055717468262,2.2941184043884277,0.43813568353652954,2.325322389602661,330.7798156738281
774.4337768554688,-0.0036733292508870363,5.823833465576172,0.14425644278526306,120.04492950439453,120.22309875488281,1.7458676099777222,27.446666717529297,27.446666717529297,14.209452629089355,0.06519589573144913,-0.06519589573144913,1.8001055717468262,2.2941184043884277,0.43859490752220154,2.325212240219116,330.78662109375
774.4484252929688,0.09886360913515091,68.93109130859375,0.14423997700214386,120.0481185913086,120.22625732421875,1.7463047504425049,27.446666717529297,27.446666717529297,14.209457397460938,0.06519589573144913,-0.06519589573144913,1.8001055717468262,2.2941184043884277,0.43967708945274353,2.325164794921875,330.7987976074219
774.4674682617188,0.022151952609419823,18.20545768737793,0.14422865211963654,120.05022430419922,120.22834014892578,1.7463353872299194,27.446666717529297,27.446666717529297,14.20946216583252,0.06519589573144913,-0.06519589573144913,1.8001055717468262,2.2941184043884277,0.44100624322891235,2.3254570960998535,330.80419921875
774.4855346679688,-0.002298415172845125,12.048937797546387,0.14421439170837402,120.0529556274414,120.23104095458984,1.746310830116272,27.446666717529297,27.446666717529297,14.209467887878418,0.06519589573144913,-0.06519589573144913,1.8001055717468262,2.2941184043884277,0.44289007782936096,2.3255152702331543,330.8067932128906
774.5028686523438,-0.000774439366068691,22.738718032836914,0.1442011594772339,120.05554962158203,120.23361206054688,1.7461835145950317,27.446666717529297,27.446666717529297,14.20946979522705,0.06519589573144913,-0.06519589573144913,1.8001055717468262,2.2941184043884277,0.4441039264202118,2.32535457611084,330.80828857421875
774.5160522460938,-0.010017476975917816,5.390247344970703,0.14418838918209076,120.05803680419922,120.23606872558594,1.7460203170776367,27.446666717529297,27.446666717529297,14.209468841552734,0.06519589573144913,-0.06519589573144913,1.8001055717468262,2.2941184043884277,0.44460928440093994,2.3251798152923584,330.81317138671875
774.5341186523438,0.055342260748147964,68.70130920410156,0.1441788524389267,120.05992889404297,120.23794555664062,1.7462058067321777,27.446666717529297,27.446666717529297,14.20946979522705,0.06519589573144913,-0.06519589573144913,1.8001055717468262,2.2941184043884277,0.44494083523750305,2.325080394744873,330.81939697265625
774.5494995117188,0.01061862614005804,26.830413818359375,0.1441657990217209,120.06251525878906,120.24050903320312,1.7458065748214722,27.446666717529297,27.446666717529297,14.209474563598633,0.06519589573144913,-0.06519589573144913,1.8001055717468262,2.2941184043884277,0.4459371864795685,2.3247697353363037,330.8289794921875
774.5641479492188,0.0016556520713493228,5.610324859619141,0.1441543847322464,120.0647201538086,120.2426986694336,1.7458610534667969,27.446666717529297,27.446666717529297,14.209479331970215,0.06519589573144913,-0.06519589573144913,1.8001055717468262,2.2941184043884277,0.44736766815185547,2.3247876167297363,330.8339538574219
774.5824584960938,0.0628027394413948,68.66145324707031,0.1441434919834137,120.06682586669922,120.24476623535156,1.74616277217865,27.446666717529297,27.446666717529297,14.209485054016113,0.06519589573144913,-0.06519589573144913,1.8001055717468262,2.2941184043884277,0.44875195622444153,2.324796676635742,330.83612060546875
774.5975952148438,0.0011289521353319287,26.168397903442383,0.14412975311279297,120.06945037841797,120.24736785888672,1.7456928491592407,27.446666717529297,27.446666717529297,14.209486961364746,0.06519589573144913,-0.06519589573144913,1.8001055717468262,2.2941184043884277,0.45002204179763794,2.3244588375091553,330.8384094238281
774.6119995117188,-0.002711303997784853,6.882301330566406,0.144118070602417,120.07161712646484,120.24951934814453,1.7456754446029663,27.446666717529297,27.446666717529297,14.209488868713379,0.06519589573144913,-0.06519589573144913,1.8001055717468262,2.2941184043884277,0.45054754614830017,2.3243651390075684,330.8428955078125
774.6300659179688,0.0676768571138382,68.575927734375,0.1441068947315216,120.07368469238281,120.2515640258789,1.7460180521011353,27.446666717529297,27.446666717529297,14.209492683410645,0.06519589573144913,-0.06519589573144913,1.8001055717468262,2.2941184043884277,0.4509686529636383,2.3243587017059326,330.8498229980469
774.6456909179688,0.014230101369321346,24.949024200439453,0.14409275352954865,120.07627868652344,120.2541275024414,1.7457523345947266,27.446666717529297,27.446666717529297,14.209498405456543,0.06519589573144913,-0.06519589573144913,1.8001055717468262,2.2941184043884277,0.4520561397075653,2.324198007583618,330.859375
774.6615600585938,0.003245375119149685,5.081533432006836,0.1440802961587906,120.0785140991211,120.25634765625,1.7458546161651611,27.446666717529297,27.446666717529297,14.209505081176758,0.06519589573144913,-0.06519589573144913,1.8001055717468262,2.2941184043884277,0.45355719327926636,2.324267864227295,330.86419677734375
774.6781616210938,0.06810589879751205,69.16806030273438,0.14406763017177582,120.0807876586914,120.25859832763672,1.7461833953857422,27.446666717529297,27.446666717529297,14.20950984954834,0.06519589573144913,-0.06519589573144913,1.8001055717468262,2.2941184043884277,0.4550457000732422,2.324284315109253,330.86639404296875
774.6947631835938,0.0040951985865831375,25.026729583740234,0.14405415952205658,120.08316802978516,120.26094818115234,1.7458444833755493,27.446666717529297,27.446666717529297,14.209512710571289,0.06519589573144913,-0.06519589573144913,1.8001055717468262,2.2941184043884277,0.4561256766319275,2.324110746383667,330.86859130859375
774.7116088867188,-0.003707845462486148,5.912853717803955,0.1440405398607254,120.0855484008789,120.2633056640625,1.7458031177520752,27.446666717529297,27.446666717529297,14.209516525268555,0.06519589573144913,-0.06519589573144913,1.8001055717468262,2.2941184043884277,0.4566698372364044,2.3240160942077637,330.8741149902344
774.7335815429688,0.07836692035198212,69.80475616455078,0.14402683079242706,120.08795928955078,120.26568603515625,1.7461602687835693,27.446666717529297,27.446666717529297,14.20952033996582,0.06519589573144913,-0.06519589573144913,1.8001055717468262,2.2941184043884277,0.4572385549545288,2.323983669281006,330.8829650878906
774.7482299804688,0.0016900014597922564,20.360828399658203,0.14400885999202728,120.09110260009766,120.268798828125,1.745607852935791,27.446666717529297,27.446666717529297,14.209531784057617,0.06519589573144913,-0.06519589573144913,1.8001055717468262,2.2941184043884277,0.4590209722518921,2.3236019611358643,330.8930969238281
774.7672729492188,-0.0003102649934589863,5.921460151672363,0.14399662613868713,120.09320068359375,120.27088165283203,1.745680570602417,27.446666717529297,27.446666717529297,14.209539413452148,0.06519589573144913,-0.06519589573144913,1.8001055717468262,2.2941184043884277,0.46053728461265564,2.3236007690429688,330.896240234375
774.7855834960938,0.07972349971532822,69.91619110107422,0.14398054778575897,120.09593200683594,120.2735824584961,1.7460567951202393,27.446666717529297,27.446666717529297,14.20954704284668,0.06519589573144913,-0.06519589573144913,1.8001055717468262,2.2941184043884277,0.4621085226535797,2.3235645294189453,330.8982849121094
774.8024291992188,0.0037391481455415487,22.088666915893555,0.14396466314792633,120.09854888916016,120.27616882324219,1.745699405670166,27.446666717529297,27.446666717529297,14.209551811218262,0.06519589573144913,-0.06519589573144913,1.8001055717468262,2.2941184043884277,0.46291226148605347,2.3233869075775146,330.90240478515625
774.8170776367188,0.0007739074062556028,5.475697994232178,0.14394991099834442,120.10095977783203,120.27855682373047,1.7457423210144043,27.446666717529297,27.446666717529297,14.209553718566895,0.06519589573144913,-0.06519589573144913,1.8001055717468262,2.2941184043884277,0.46337890625,2.32334566116333,330.9100646972656
774.8339233398438,0.07205797731876373,69.2916488647461,0.1439370959997177,120.10305786132812,120.2806396484375,1.7461092472076416,27.446666717529297,27.446666717529297,14.209562301635742,0.06519589573144913,-0.06519589573144913,1.8001055717468262,2.2941184043884277,0.4640730023384094,2.323376178741455,330.91827392578125
774.8502807617188,0.01150561310350895,23.834867477416992,0.14392231404781342,120.10546875,120.28302001953125,1.7458710670471191,27.446666717529297,27.446666717529297,14.20957088470459,0.06519589573144913,-0.06519589573144913,1.8001055717468262,2.2941184043884277,0.4656095802783966,2.323295831680298,330.92449951171875
774.8639526367188,-0.0034056035801768303,4.921894550323486,0.143907830119133,120.10780334472656,120.28533935546875,1.745885968208313,27.446666717529297,27.446666717529297,14.209579467773438,0.06519589573144913,-0.06519589573144913,1.8001055717468262,2.2941184043884277,0.46719446778297424,2.32330584526062,330.9272155761719
774.8822631835938,0.05473124608397484,68.395263671875,0.1438957154750824,120.1097640991211,120.28726959228516,1.7461060285568237,27.446666717529297,27.446666717529297,14.209587097167969,0.06519589573144913,-0.06519589573144913,1.8001055717468262,2.2941184043884277,0.4681863486766815,2.323251485824585,330.9289855957031
774.8978881835938,0.005783815868198872,27.906160354614258,0.14387951791286469,120.11238098144531,120.28986358642578,1.74563467502594,27.446666717529297,27.446666717529297,14.209590911865234,0.06519589573144913,-0.06519589573144913,1.8001055717468262,2.2941184043884277,0.46894341707229614,2.322862148284912,330.9347229003906
774.9120483398438,0.00392917450517416,6.557123184204102,0.1438654363155365,120.11461639404297,120.29207611083984,1.745680332183838,27.446666717529297,27.446666717529297,14.20959758758545,0.06519589573144913,-0.06519589573144913,1.8001055717468262,2.2941184043884277,0.4694856107234955,2.3228209018707275,330.94281005859375
774.9301147460938,0.07158200442790985,68.78404235839844,0.1438526213169098,120.11663818359375,120.29407501220703,1.746077299118042,27.446666717529297,27.446666717529297,14.209606170654297,0.06519589573144913,-0.06519589573144913,1.8001055717468262,2.2941184043884277,0.47038891911506653,2.3228936195373535,330.9501953125
774.9454956054688,0.008120833896100521,24.208280563354492,0.14383627474308014,120.11922454833984,120.29663848876953,1.7457594871520996,27.446666717529297,27.446666717529297,14.209614753723145,0.06519589573144913,-0.06519589573144913,1.8001055717468262,2.2941184043884277,0.47219955921173096,2.322730779647827,330.9552917480469
774.9616088867188,-0.0034065390937030315,5.720903396606445,0.14382211863994598,120.12142181396484,120.29881286621094,1.745772361755371,27.446666717529297,27.446666717529297,14.209623336791992,0.06519589573144913,-0.06519589573144913,1.8001055717468262,2.2941184043884277,0.473583847284317,2.322713613510132,330.957275390625
774.9784545898438,0.06666776537895203,68.96705627441406,0.14380724728107452,120.12372589111328,120.30108642578125,1.7460534572601318,27.446666717529297,27.446666717529297,14.20962905883789,0.06519589573144913,-0.06519589573144913,1.8001055717468262,2.2941184043884277,0.4745049476623535,2.322654962539673,330.960205078125
774.9948120117188,0.01106720045208931,25.53921890258789,0.14379160106182098,120.12612915039062,120.303466796875,1.7457677125930786,27.446666717529297,27.446666717529297,14.209637641906738,0.06519589573144913,-0.06519589573144913,1.8001055717468262,2.2941184043884277,0.4750608205795288,2.3224916458129883,330.9669189453125
775.0116577148438,0.005596713628619909,5.399511814117432,0.1437762975692749,120.12846374511719,120.3057861328125,1.7458431720733643,27.446666717529297,27.446666717529297,14.209644317626953,0.06519589573144913,-0.06519589573144913,1.8001055717468262,2.2941184043884277,0.47573384642601013,2.322512626647949,330.97613525390625
775.0336303710938,0.08158286660909653,69.99813079833984,0.14376071095466614,120.13087463378906,120.30817413330078,1.7462704181671143,27.446666717529297,27.446666717529297,14.20965576171875,0.06519589573144913,-0.06519589573144913,1.8001055717468262,2.2941184043884277,0.4771389663219452,2.3225953578948975,330.98358154296875
775.0485229492188,-0.007637311704456806,19.976634979248047,0.1437404751777649,120.1340103149414,120.31127166748047,1.7455847263336182,27.446666717529297,27.446666717529297,14.209668159484863,0.06519589573144913,-0.06519589573144913,1.8001055717468262,2.2941184043884277,0.4794101119041443,2.3221490383148193,330.98748779296875
775.0670776367188,-0.0073241242207586765,6.764591693878174,0.14372645318508148,120.13613891601562,120.3133773803711,1.745551586151123,27.446666717529297,27.446666717529297,14.209676742553711,0.06519589573144913,-0.06519589573144913,1.8001055717468262,2.2941184043884277,0.4804837703704834,2.322023391723633,330.9892272949219
775.0856323242188,0.08055046945810318,69.6400375366211,0.14370881021022797,120.13878631591797,120.31599426269531,1.7459161281585693,27.446666717529297,27.446666717529297,14.209687232971191,0.06519589573144913,-0.06519589573144913,1.8001055717468262,2.2941184043884277,0.48113471269607544,2.3219337463378906,330.9952087402344
775.1024780273438,0.013553522527217865,22.01405906677246,0.1436907798051834,120.14144134521484,120.31861877441406,1.7456700801849365,27.446666717529297,27.446666717529297,14.20969295501709,0.06519589573144913,-0.06519589573144913,1.8001055717468262,2.2941184043884277,0.481797456741333,2.321831226348877,331.0053405761719
775.1161499023438,0.007304519880563021,4.276723384857178,0.14367441833019257,120.14384460449219,120.32099914550781,1.745829701423645,27.446666717529297,27.446666717529297,14.209702491760254,0.06519589573144913,-0.06519589573144913,1.8001055717468262,2.2941184043884277,0.48303335905075073,2.321938991546631,331.0141296386719
775.1339721679688,0.0654478445649147,69.05608367919922,0.14366118609905243,120.14579010009766,120.32292938232422,1.7461683750152588,27.446666717529297,27.446666717529297,14.20971393585205,0.06519589573144913,-0.06519589573144913,1.8001055717468262,2.2941184043884277,0.48445290327072144,2.322012186050415,331.01812744140625
775.1498413085938,0.0022624966222792864,25.330764770507812,0.14364401996135712,120.1483383178711,120.32544708251953,1.745735764503479,27.446666717529297,27.446666717529297,14.209726333618164,0.06519589573144913,-0.06519589573144913,1.8001055717468262,2.2941184043884277,0.4861881136894226,2.321746826171875,331.0206298828125
775.1637573242188,-0.006175088696181774,6.380801677703857,0.1436285525560379,120.15060424804688,120.32769012451172,1.745676875114441,27.446666717529297,27.446666717529297,14.209733963012695,0.06519589573144913,-0.06519589573144913,1.8001055717468262,2.2941184043884277,0.4871666729450226,2.3216402530670166,331.0232849121094
775.1823120117188,0.060462191700935364,68.32266998291016,0.1436150074005127,120.152587890625,120.32965087890625,1.745941400527954,27.446666717529297,27.446666717529297,14.20974349975586,0.06519589573144913,-0.06519589573144913,1.8001055717468262,2.2941184043884277,0.48763978481292725,2.3215816020965576,331.02825927734375
775.1976928710938,0.014139534905552864,26.794227600097656,0.143596813082695,120.15523529052734,120.33226776123047,1.7455958127975464,27.446666717529297,27.446666717529297,14.209749221801758,0.06519589573144913,-0.06519589573144913,1.8001055717468262,2.2941184043884277,0.4883664548397064,2.3213002681732178,331.0384216308594
775.2118530273438,0.008938329294323921,5.569847583770752,0.14358149468898773,120.15742492675781,120.33444213867188,1.7457337379455566,27.446666717529297,27.446666717529297,14.209761619567871,0.06519589573144913,-0.06519589573144913,1.8001055717468262,2.2941184043884277,0.4895111918449402,2.3213822841644287,331.0464782714844
775.2306518554688,0.06903918087482452,68.78536987304688,0.14356747269630432,120.1594467163086,120.33644104003906,1.7461166381835938,27.446666717529297,27.446666717529297,14.209772109985352,0.06519589573144913,-0.06519589573144913,1.8001055717468262,2.2941184043884277,0.49097567796707153,2.3214848041534424,331.0506591796875
775.2455444335938,0.0016401391476392746,24.659440994262695,0.14354896545410156,120.16212463378906,120.3390884399414,1.7456538677215576,27.446666717529297,27.446666717529297,14.209784507751465,0.06519589573144913,-0.06519589573144913,1.8001055717468262,2.2941184043884277,0.49279487133026123,2.32119083404541,331.05328369140625
775.2614135742188,-0.004262094385921955,6.743768215179443,0.14353403449058533,120.16425323486328,120.34120178222656,1.7456271648406982,27.446666717529297,27.446666717529297,14.209793090820312,0.06519589573144913,-0.06519589573144913,1.8001055717468262,2.2941184043884277,0.493692547082901,2.321108341217041,331.0558166503906
775.2782592773438,0.07088901847600937,68.84260559082031,0.1435180902481079,120.16651153564453,120.34343719482422,1.745956301689148,27.446666717529297,27.446666717529297,14.209800720214844,0.06519589573144913,-0.06519589573144913,1.8001055717468262,2.2941184043884277,0.4942154288291931,2.32106876373291,331.061767578125
775.2948608398438,0.01711919717490673,24.806398391723633,0.14350107312202454,120.16891479492188,120.34580993652344,1.7457538843154907,27.446666717529297,27.446666717529297,14.209811210632324,0.06519589573144913,-0.06519589573144913,1.8001055717468262,2.2941184043884277,0.4948599934577942,2.320986032485962,331.07122802734375
775.3117065429688,0.007076124660670757,4.470139026641846,0.14348424971103668,120.17127990722656,120.34815216064453,1.7458815574645996,27.446666717529297,27.446666717529297,14.209821701049805,0.06519589573144913,-0.06519589573144913,1.8001055717468262,2.2941184043884277,0.4961301386356354,2.321091413497925,331.0796203613281
775.3331909179688,0.07740398496389389,70.02620697021484,0.14346745610237122,120.17367553710938,120.35052490234375,1.74625825881958,27.446666717529297,27.446666717529297,14.209836959838867,0.06519589573144913,-0.06519589573144913,1.8001055717468262,2.2941184043884277,0.4978853464126587,2.321161985397339,331.083984375
775.3490600585938,-0.008331946097314358,21.175064086914062,0.143446147441864,120.17674255371094,120.35355377197266,1.7455333471298218,27.446666717529297,27.446666717529297,14.20985221862793,0.06519589573144913,-0.06519589573144913,1.8001055717468262,2.2941184043884277,0.49976399540901184,2.3206725120544434,331.0867614746094
775.3666381835938,-0.006104579661041498,6.787972927093506,0.14343015849590302,120.17900085449219,120.35578918457031,1.7454822063446045,27.446666717529297,27.446666717529297,14.209857940673828,0.06519589573144913,-0.06519589573144913,1.8001055717468262,2.2941184043884277,0.500490128993988,2.3205158710479736,331.0906066894531
775.3795776367188,0.08096229285001755,69.58050537109375,0.14341230690479279,120.18150329589844,120.3582763671875,1.7458724975585938,27.446666717529297,27.446666717529297,14.209869384765625,0.06519589573144913,-0.06519589573144913,1.8001055717468262,2.2941184043884277,0.5010175704956055,2.3204662799835205,331.0988464355469
775.3986206054688,0.02906690165400505,23.09052276611328,0.14339879155158997,120.183349609375,120.36009979248047,1.7459311485290527,27.446666717529297,27.446666717529297,14.209878921508789,0.06519589573144913,-0.06519589573144913,1.8001055717468262,2.2941184043884277,0.5015804171562195,2.320666790008545,331.1065368652344
775.4135131835938,0.004065121989697218,3.9389588832855225,0.14337924122810364,120.1860580444336,120.36277770996094,1.7460706233978271,27.446666717529297,27.446666717529297,14.209895133972168,0.06519589573144913,-0.06519589573144913,1.8001055717468262,2.2941184043884277,0.5032678246498108,2.320866346359253,331.1143798828125
775.4279174804688,0.06477153301239014,69.35672760009766,0.1433643251657486,120.18817901611328,120.36487579345703,1.7463277578353882,27.446666717529297,27.446666717529297,14.209907531738281,0.06519589573144913,-0.06519589573144913,1.8001055717468262,2.2941184043884277,0.5047549605369568,2.3208837509155273,331.1174011230469
775.4462280273438,0.007112110964953899,25.316896438598633,0.14334994554519653,120.19023132324219,120.36690521240234,1.7460514307022095,27.446666717529297,27.446666717529297,14.209916114807129,0.06519589573144913,-0.06519589573144913,1.8001055717468262,2.2941184043884277,0.5058688521385193,2.3208065032958984,331.11981201171875
775.4616088867188,-0.006925160065293312,5.010042190551758,0.143331840634346,120.19283294677734,120.3694839477539,1.7459094524383545,27.446666717529297,27.446666717529297,14.20992374420166,0.06519589573144913,-0.06519589573144913,1.8001055717468262,2.2941184043884277,0.5066684484481812,2.320678234100342,331.1260070800781
775.4782104492188,0.0694347470998764,69.67867279052734,0.143316850066185,120.19502258300781,120.37165069580078,1.7461559772491455,27.446666717529297,27.446666717529297,14.209936141967773,0.06519589573144913,-0.06519589573144913,1.8001055717468262,2.2941184043884277,0.5072655081748962,2.320594072341919,331.1343688964844
775.4948120117188,0.013897226192057133,23.88249397277832,0.14330072700977325,120.1973876953125,120.37399291992188,1.7458930015563965,27.446666717529297,27.446666717529297,14.209945678710938,0.06519589573144913,-0.06519589573144913,1.8001055717468262,2.2941184043884277,0.5084565281867981,2.320495843887329,331.1433410644531
775.5116577148438,0.0003477901918813586,4.495821475982666,0.1432846486568451,120.19975280761719,120.37632751464844,1.745923638343811,27.446666717529297,27.446666717529297,14.209959983825684,0.06519589573144913,-0.06519589573144913,1.8001055717468262,2.2941184043884277,0.5101684927940369,2.320543050765991,331.1484069824219
775.5292358398438,0.07035020738840103,69.71717071533203,0.14326860010623932,120.2021484375,120.37870025634766,1.746187448501587,27.446666717529297,27.446666717529297,14.209973335266113,0.06519589573144913,-0.06519589573144913,1.8001055717468262,2.2941184043884277,0.5117416977882385,2.320507049560547,331.1510009765625
