Time_sec,Q_deg,Qdot_deg_per_sec,Vertical_speed_SI,Altitude_MSL_SI,Height_AGL_SI,alpha_deg,IAS0_knots,IAS1_knots,TAS_SI,Left_aileron_deg,Right_aileron_deg,Elevator_deg,Rudder_deg,Roll_deg,Pitch_deg,Yaw_deg
783.9786987304688,0.09758570790290833,65.45431518554688,0.14326147735118866
783.9953002929688,0.022866152226924896,18.143705368041992,0.14325308799743652,121.41224670410156,121.574951171875,1.7463809251785278,27.446666717529297,27.446666717529297,14.21134090423584,0.06519589573144913,-0.06519589573144913,1.8001055717468262,2.2941184043884277,1.3676095008850098,2.3242971897125244,336.28033447265625
784.0180053710938,0.02024722658097744,4.584911346435547,0.14324532449245453,121.41461181640625,121.57728576660156,1.7463642358779907,27.446666717529297,27.446666717529297,14.211344718933105,0.06519589573144913,-0.06519589573144913,1.8001055717468262,2.2941184043884277,1.3693630695343018,2.324226140975952,336.2990417480469
784.0326538085938,0.061150241643190384,40.765560150146484,0.1432352215051651,121.41785430908203,121.58049011230469,1.7464218139648438,27.446666717529297,27.446666717529297,14.211356163024902,0.06519589573144913,-0.06519589573144913,1.8001055717468262,2.2941184043884277,1.3727613687515259,2.324042797088623,336.3245849609375
784.0499877929688,0.0491151437163353,31.852920532226562,0.1432284712791443,121.4199447631836,121.58256530761719,1.7465070486068726,27.446666717529297,27.446666717529297,14.2113618850708,0.06519589573144913,-0.06519589573144913,1.8001055717468262,2.2941184043884277,1.375426173210144,2.3241817951202393,336.3373718261719
784.0641479492188,0.09815798699855804,69.03324890136719,0.14322052896022797,121.42242431640625,121.58500671386719,1.7467879056930542,27.446666717529297,27.446666717529297,14.211368560791016,0.06519589573144913,-0.06519589573144913,1.8001055717468262,2.2941184043884277,1.3783589601516724,2.3243319988250732,336.3499755859375
784.0834350585938,0.03258008137345314,24.588701248168945,0.14321394264698029,121.42444610595703,121.58699798583984,1.7465767860412598,27.446666717529297,27.446666717529297,14.211370468139648,0.06519589573144913,-0.06519589573144913,1.8001055717468262,2.2941184043884277,1.3802756071090698,2.3244147300720215,336.3608703613281
784.1027221679688,0.014306888915598392,7.945631980895996,0.14320550858974457,121.42720031738281,121.5897216796875,1.746392011642456,27.446666717529297,27.446666717529297,14.211374282836914,0.06519589573144913,-0.06519589573144913,1.8001055717468262,2.2941184043884277,1.3823922872543335,2.324281930923462,336.3799743652344
784.1249389648438,0.11050022393465042,68.81392669677734,0.14319753646850586,121.4299545288086,121.59244537353516,1.746744155883789,27.446666717529297,27.446666717529297,14.211380004882812,0.06519589573144913,-0.06519589573144913,1.8001055717468262,2.2941184043884277,1.384744644165039,2.3241846561431885,336.402587890625
784.1449584960938,0.011075187474489212,13.255295753479004,0.1431882530450821,121.4331283569336,121.59557342529297,1.7460954189300537,27.446666717529297,27.446666717529297,14.211387634277344,0.06519589573144913,-0.06519589573144913,1.8001055717468262,2.2941184043884277,1.3886271715164185,2.3238637447357178,336.42462158203125
784.1683959960938,0.014904310926795006,17.575300216674805,0.1431797444820404,121.43598175048828,121.59839630126953,1.7459754943847656,27.446666717529297,27.446666717529297,14.211397171020508,0.06519589573144913,-0.06519589573144913,1.8001055717468262,2.2941184043884277,1.3921935558319092,2.323733329772949,336.4393310546875
784.1849975585938,0.002607345813885331,2.5954437255859375,0.14316920936107635,121.4393310546875,121.60169219970703,1.7457911968231201,27.446666717529297,27.446666717529297,14.211402893066406,0.06519589573144913,-0.06519589573144913,1.8001055717468262,2.2941184043884277,1.3953043222427368,2.3235490322113037,336.4574279785156
784.2030639648438,0.016886064782738686,5.284382343292236,0.1431615948677063,121.44169616699219,121.60403442382812,1.7457228899002075,27.446666717529297,27.446666717529297,14.211404800415039,0.06519589573144913,-0.06519589573144913,1.8001055717468262,2.2941184043884277,1.397072196006775,2.323306083679199,336.4743957519531
784.2216186523438,0.10587885230779648,67.9026870727539,0.1431531310081482,121.44427490234375,121.60658264160156,1.7461744546890259,27.446666717529297,27.446666717529297,14.211410522460938,0.06519589573144913,-0.06519589573144913,1.8001055717468262,2.2941184043884277,1.3992363214492798,2.3232486248016357,336.4959411621094
784.2389526367188,0.02947515994310379,16.377716064453125,0.143143892288208,121.4469223022461,121.60919952392578,1.745976448059082,27.446666717529297,27.446666717529297,14.211419105529785,0.06519589573144913,-0.06519589573144913,1.8001055717468262,2.2941184043884277,1.4023504257202148,2.323225736618042,336.5155944824219
784.2616577148438,0.02824641950428486,14.905954360961914,0.14313504099845886,121.44939422607422,121.61163330078125,1.7460899353027344,27.446666717529297,27.446666717529297,14.21142864227295,0.06519589573144913,-0.06519589573144913,1.8001055717468262,2.2941184043884277,1.405534267425537,2.3233237266540527,336.5296325683594
784.2780151367188,0.039188869297504425,27.809341430664062,0.14312322437763214,121.45263671875,121.61483764648438,1.746124505996704,27.446666717529297,27.446666717529297,14.211438179016113,0.06519589573144913,-0.06519589573144913,1.8001055717468262,2.2941184043884277,1.4089787006378174,2.3233180046081543,336.5464172363281
784.2948608398438,0.020203398540616035,3.4249303340911865,0.14311444759368896,121.45497131347656,121.61714172363281,1.7461388111114502,27.446666717529297,27.446666717529297,14.21143913269043,0.06519589573144913,-0.06519589573144913,1.8001055717468262,2.2941184043884277,1.4108054637908936,2.3233587741851807,336.5616149902344
784.3117065429688,0.1020258218050003,70.29776763916016,0.14310571551322937,121.45736694335938,121.6195068359375,1.746496319770813,27.446666717529297,27.446666717529297,14.211442947387695,0.06519589573144913,-0.06519589573144913,1.8001055717468262,2.2941184043884277,1.4126511812210083,2.323309898376465,336.58074951171875
784.3292846679688,0.04868994280695915,31.100725173950195,0.14309687912464142,121.45977020263672,121.62188720703125,1.7463099956512451,27.446666717529297,27.446666717529297,14.211450576782227,0.06519589573144913,-0.06519589573144913,1.8001055717468262,2.2941184043884277,1.4150341749191284,2.323228597640991,336.6006774902344
784.3468627929688,0.023405903950333595,3.980680227279663,0.14308756589889526,121.4622802734375,121.62435913085938,1.746353030204773,27.446666717529297,27.446666717529297,14.21146011352539,0.06519589573144913,-0.06519589573144913,1.8001055717468262,2.2941184043884277,1.4182051420211792,2.323350191116333,336.61724853515625
784.3615112304688,0.08414575457572937,63.132686614990234,0.14307841658592224,121.46478271484375,121.6268310546875,1.7465709447860718,27.446666717529297,27.446666717529297,14.211467742919922,0.06519589573144913,-0.06519589573144913,1.8001055717468262,2.2941184043884277,1.421287178993225,2.3233816623687744,336.6306457519531
784.3781127929688,0.08810296654701233,68.63395690917969,0.14307059347629547,121.46687316894531,121.62889862060547,1.7466310262680054,27.446666717529297,27.446666717529297,14.211474418640137,0.06519589573144913,-0.06519589573144913,1.8001055717468262,2.2941184043884277,1.4233366250991821,2.32344913482666,336.6423034667969
784.3947143554688,0.02097931317985058,18.20806312561035,0.14306189119815826,121.46923828125,121.6312255859375,1.7462157011032104,27.446666717529297,27.446666717529297,14.211475372314453,0.06519589573144913,-0.06519589573144913,1.8001055717468262,2.2941184043884277,1.425249457359314,2.3232474327087402,336.6589050292969
784.4118041992188,0.02210230566561222,3.643171548843384,0.1430533081293106,121.47160339355469,121.6335678100586,1.7462208271026611,27.446666717529297,27.446666717529297,14.211481094360352,0.06519589573144913,-0.06519589573144913,1.8001055717468262,2.2941184043884277,1.427225947380066,2.3231523036956787,336.67852783203125
784.4337768554688,0.10359411686658859,69.54542541503906,0.14304468035697937,121.47404479980469,121.63597869873047,1.7465901374816895,27.446666717529297,27.446666717529297,14.211492538452148,0.06519589573144913,-0.06519589573144913,1.8001055717468262,2.2941184043884277,1.429938554763794,2.3231418132781982,336.6976623535156
784.4484252929688,0.010630750097334385,16.778108596801758,0.1430334448814392,121.4771728515625,121.63906860351562,1.7458691596984863,27.446666717529297,27.446666717529297,14.211502075195312,0.06519589573144913,-0.06519589573144913,1.8001055717468262,2.2941184043884277,1.4340611696243286,2.32275128364563,336.7160949707031
784.4669799804688,0.057558126747608185,51.35402297973633,0.1430256962776184,121.47926330566406,121.64112091064453,1.745985984802246,27.446666717529297,27.446666717529297,14.211507797241211,0.06519589573144913,-0.06519589573144913,1.8001055717468262,2.2941184043884277,1.4364205598831177,2.3226711750030518,336.72698974609375
784.4857788085938,0.10139104723930359,70.97366333007812,0.1430155485868454,121.48190307617188,121.64373779296875,1.746091604232788,27.446666717529297,27.446666717529297,14.211514472961426,0.06519589573144913,-0.06519589573144913,1.8001055717468262,2.2941184043884277,1.4386892318725586,2.3225128650665283,336.7442626953125
784.5026245117188,0.046843644231557846,30.72161293029785,0.14300496876239777,121.48458099365234,121.6463851928711,1.7458385229110718,27.446666717529297,27.446666717529297,14.211520195007324,0.06519589573144913,-0.06519589573144913,1.8001055717468262,2.2941184043884277,1.4409109354019165,2.3222920894622803,336.76605224609375
784.5158081054688,0.031016968190670013,2.905954599380493,0.1429951786994934,121.48698425292969,121.64875030517578,1.7460119724273682,27.446666717529297,27.446666717529297,14.211526870727539,0.06519589573144913,-0.06519589573144913,1.8001055717468262,2.2941184043884277,1.4434369802474976,2.322389841079712,336.78594970703125
784.5343627929688,0.06203079596161842,44.73984146118164,0.14298748970031738,121.48886108398438,121.6506118774414,1.7462493181228638,27.446666717529297,27.446666717529297,14.211536407470703,0.06519589573144913,-0.06519589573144913,1.8001055717468262,2.2941184043884277,1.4458731412887573,2.3224713802337646,336.7986145019531
784.5494995117188,0.08587191998958588,59.04642868041992,0.14297644793987274,121.49150085449219,121.65321350097656,1.7463672161102295,27.446666717529297,27.446666717529297,14.211546897888184,0.06519589573144913,-0.06519589573144913,1.8001055717468262,2.2941184043884277,1.449226975440979,2.3225009441375732,336.8132019042969
784.5636596679688,0.02433527261018753,3.2176296710968018,0.1429670751094818,121.49365997314453,121.65534210205078,1.746256709098816,27.446666717529297,27.446666717529297,14.21155071258545,0.06519589573144913,-0.06519589573144913,1.8001055717468262,2.2941184043884277,1.451432228088379,2.322634220123291,336.8251953125
784.5897827148438,0.08743537962436676,69.6797866821289,0.14295853674411774,121.49567413330078,121.65733337402344,1.7465318441390991,27.446666717529297,27.446666717529297,14.211557388305664,0.06519589573144913,-0.06519589573144913,1.8001055717468262,2.2941184043884277,1.4530876874923706,2.322643518447876,336.8389892578125
784.6117553710938,0.006644569803029299,14.582305908203125,0.14294353127479553,121.49939727783203,121.6610107421875,1.7453842163085938,27.446666717529297,27.446666717529297,14.211566925048828,0.06519589573144913,-0.06519589573144913,1.8001055717468262,2.2941184043884277,1.4564805030822754,2.3215434551239014,336.87042236328125
784.6373901367188,0.028870267793536186,17.28855323791504,0.14292997121810913,121.50252532958984,121.66409301757812,1.7455018758773804,27.446666717529297,27.446666717529297,14.21158504486084,0.06519589573144913,-0.06519589573144913,1.8001055717468262,2.2941184043884277,1.4604309797286987,2.321352958679199,336.89495849609375
784.6530151367188,0.00823950581252575,1.6254199743270874,0.1429128497838974,121.50617218017578,121.66769409179688,1.7456028461456299,27.446666717529297,27.446666717529297,14.211602210998535,0.06519589573144913,-0.06519589573144913,1.8001055717468262,2.2941184043884277,1.4653607606887817,2.3214430809020996,336.9149475097656
784.6710815429688,0.021108370274305344,16.633237838745117,0.14290207624435425,121.50839233398438,121.66989135742188,1.745536208152771,27.446666717529297,27.446666717529297,14.2116117477417,0.06519589573144913,-0.06519589573144913,1.8001055717468262,2.2941184043884277,1.4677077531814575,2.3212761878967285,336.9266357421875
784.6896362304688,0.03356153517961502,18.395044326782227,0.1428890824317932,121.5109634399414,121.67242431640625,1.7456625699996948,27.446666717529297,27.446666717529297,14.21161937713623,0.06519589573144913,-0.06519589573144913,1.8001055717468262,2.2941184043884277,1.469742774963379,2.321220874786377,336.9443359375
784.7118530273438,0.03172348067164421,9.003899574279785,0.1428753137588501,121.51359558105469,121.6750259399414,1.7458527088165283,27.446666717529297,27.446666717529297,14.211627006530762,0.06519589573144913,-0.06519589573144913,1.8001055717468262,2.2941184043884277,1.4718703031539917,2.321237325668335,336.966552734375
784.7333374023438,0.027493830770254135,0.4054936468601227,0.14285866916179657,121.51675415039062,121.67814636230469,1.7461555004119873,27.446666717529297,27.446666717529297,14.211644172668457,0.06519589573144913,-0.06519589573144913,1.8001055717468262,2.2941184043884277,1.4754217863082886,2.3213977813720703,336.9927673339844
784.7484741210938,0.12152282893657684,70.14385986328125,0.1428428292274475,121.51980590820312,121.68115997314453,1.7465559244155884,27.446666717529297,27.446666717529297,14.211661338806152,0.06519589573144913,-0.06519589573144913,1.8001055717468262,2.2941184043884277,1.4795571565628052,2.3214285373687744,337.0115661621094
784.7675170898438,0.09939613938331604,68.3755111694336,0.14283114671707153,121.52195739746094,121.68328094482422,1.7467060089111328,27.446666717529297,27.446666717529297,14.211669921875,0.06519589573144913,-0.06519589573144913,1.8001055717468262,2.2941184043884277,1.4820388555526733,2.3217051029205322,337.023193359375
784.7858276367188,0.016961196437478065,17.382259368896484,0.1428169459104538,121.52466583251953,121.68595123291016,1.7461227178573608,27.446666717529297,27.446666717529297,14.211677551269531,0.06519589573144913,-0.06519589573144913,1.8001055717468262,2.2941184043884277,1.4844741821289062,2.321418046951294,337.04119873046875
784.8024291992188,0.02153535559773445,4.569853782653809,0.14280347526073456,121.52726745605469,121.68852996826172,1.7460911273956299,27.446666717529297,27.446666717529297,14.211686134338379,0.06519589573144913,-0.06519589573144913,1.8001055717468262,2.2941184043884277,1.4866544008255005,2.321255683898926,337.0627746582031
784.8214721679688,0.09415511041879654,63.90126037597656,0.14279140532016754,121.52962493896484,121.69084930419922,1.7464075088500977,27.446666717529297,27.446666717529297,14.211699485778809,0.06519589573144913,-0.06519589573144913,1.8001055717468262,2.2941184043884277,1.4891576766967773,2.3211915493011475,337.0829772949219
784.8388061523438,0.11238566040992737,70.14559173583984,0.1427774429321289,121.53233337402344,121.69352722167969,1.74649178981781,27.446666717529297,27.446666717529297,14.211713790893555,0.06519589573144913,-0.06519589573144913,1.8001055717468262,2.2941184043884277,1.4927681684494019,2.321169376373291,337.10125732421875
784.8519897460938,0.0700993686914444,49.53073501586914,0.1427643895149231,121.53479766845703,121.69595336914062,1.7463595867156982,27.446666717529297,27.446666717529297,14.211723327636719,0.06519589573144913,-0.06519589573144913,1.8001055717468262,2.2941184043884277,1.4958415031433105,2.321221113204956,337.1149597167969
784.8705444335938,0.0870438665151596,69.17084503173828,0.1427544355392456,121.53666687011719,121.69780731201172,1.7465453147888184,27.446666717529297,27.446666717529297,14.211729049682617,0.06519589573144913,-0.06519589573144913,1.8001055717468262,2.2941184043884277,1.4976956844329834,2.321355104446411,337.126220703125
784.8878784179688,0.017794515937566757,17.744352340698242,0.14274080097675323,121.53929901123047,121.70040130615234,1.7459611892700195,27.446666717529297,27.446666717529297,14.211737632751465,0.06519589573144913,-0.06519589573144913,1.8001055717468262,2.2941184043884277,1.499955415725708,2.320955276489258,337.1460876464844
784.9057006835938,0.02615530788898468,4.88035249710083,0.1427280455827713,121.54176330566406,121.70283508300781,1.745997667312622,27.446666717529297,27.446666717529297,14.211747169494629,0.06519589573144913,-0.06519589573144913,1.8001055717468262,2.2941184043884277,1.502215027809143,2.3208205699920654,337.16766357421875
784.9284057617188,0.0944804698228836,61.02408981323242,0.1427149772644043,121.54429626464844,121.70533752441406,1.746353268623352,27.446666717529297,27.446666717529297,14.211763381958008,0.06519589573144913,-0.06519589573144913,1.8001055717468262,2.2941184043884277,1.5053291320800781,2.3208301067352295,337.1876525878906
784.9494018554688,0.0239162128418684,16.215362548828125,0.1426980346441269,121.54751586914062,121.7085189819336,1.7458758354187012,27.446666717529297,27.446666717529297,14.211780548095703,0.06519589573144913,-0.06519589573144913,1.8001055717468262,2.2941184043884277,1.5096709728240967,2.320596218109131,337.2068786621094
784.9645385742188,0.023379996418952942,14.705042839050293,0.14268186688423157,121.55049896240234,121.71145629882812,1.745845079421997,27.446666717529297,27.446666717529297,14.211793899536133,0.06519589573144913,-0.06519589573144913,1.8001055717468262,2.2941184043884277,1.5128220319747925,2.3205394744873047,337.2240295410156
784.9830932617188,0.07136800140142441,50.54777908325195,0.14267010986804962,121.55264282226562,121.71357727050781,1.7460980415344238,27.446666717529297,27.446666717529297,14.21180248260498,0.06519589573144913,-0.06519589573144913,1.8001055717468262,2.2941184043884277,1.5145758390426636,2.320530652999878,337.23974609375
785.0014038085938,0.10555794090032578,65.83104705810547,0.14265567064285278,121.55528259277344,121.71617889404297,1.7462855577468872,27.446666717529297,27.446666717529297,14.211813926696777,0.06519589573144913,-0.06519589573144913,1.8001055717468262,2.2941184043884277,1.5168198347091675,2.3204336166381836,337.2626647949219
785.0189819335938,0.0363355427980423,17.339405059814453,0.1426413655281067,121.55787658691406,121.71874237060547,1.7460993528366089,27.446666717529297,27.446666717529297,14.211828231811523,0.06519589573144913,-0.06519589573144913,1.8001055717468262,2.2941184043884277,1.5197901725769043,2.3203821182250977,337.2851257324219
785.0372924804688,0.023773733526468277,2.5178630352020264,0.1426275670528412,121.56037139892578,121.72120666503906,1.7461904287338257,27.446666717529297,27.446666717529297,14.211843490600586,0.06519589573144913,-0.06519589573144913,1.8001055717468262,2.2941184043884277,1.523215651512146,2.3205056190490723,337.3020324707031
785.0548706054688,0.08492942154407501,58.68247604370117,0.14261332154273987,121.5629653930664,121.72377014160156,1.7463901042938232,27.446666717529297,27.446666717529297,14.211859703063965,0.06519589573144913,-0.06519589573144913,1.8001055717468262,2.2941184043884277,1.5265012979507446,2.3205037117004395,337.3169250488281
785.0736694335938,0.0203940998762846,2.886659860610962,0.14259938895702362,121.56546020507812,121.72622680664062,1.7461386919021606,27.446666717529297,27.446666717529297,14.211868286132812,0.06519589573144913,-0.06519589573144913,1.8001055717468262,2.2941184043884277,1.5289381742477417,2.3204872608184814,337.3330078125
785.0949096679688,0.09878112375736237,61.82674789428711,0.1425849050283432,121.56813049316406,121.7288589477539,1.7464101314544678,27.446666717529297,27.446666717529297,14.211882591247559,0.06519589573144913,-0.06519589573144913,1.8001055717468262,2.2941184043884277,1.5312086343765259,2.3203654289245605,337.3547058105469
785.1173706054688,0.085999995470047,47.19701385498047,0.1425686478614807,121.57113647460938,121.7318344116211,1.7463092803955078,27.446666717529297,27.446666717529297,14.211897850036621,0.06519589573144913,-0.06519589573144913,1.8001055717468262,2.2941184043884277,1.5343536138534546,2.320150852203369,337.3818054199219
785.1325073242188,0.08838219940662384,52.323883056640625,0.14255133271217346,121.57432556152344,121.7349853515625,1.7463685274124146,27.446666717529297,27.446666717529297,14.211917877197266,0.06519589573144913,-0.06519589573144913,1.8001055717468262,2.2941184043884277,1.53874933719635,2.320157051086426,337.40460205078125
785.1513061523438,0.08575368672609329,60.16685485839844,0.142539381980896,121.57646942138672,121.73709869384766,1.7465513944625854,27.446666717529297,27.446666717529297,14.211929321289062,0.06519589573144913,-0.06519589573144913,1.8001055717468262,2.2941184043884277,1.54154634475708,2.3203935623168945,337.4169616699219
785.1693725585938,0.022354498505592346,13.614723205566406,0.14252479374408722,121.57913970947266,121.73973083496094,1.7461258172988892,27.446666717529297,27.446666717529297,14.211941719055176,0.06519589573144913,-0.06519589573144913,1.8001055717468262,2.2941184043884277,1.5443239212036133,2.320218324661255,337.4337158203125
785.1869506835938,0.02551545575261116,14.480348587036133,0.14251093566417694,121.58169555664062,121.74225616455078,1.746098279953003,27.446666717529297,27.446666717529297,14.211952209472656,0.06519589573144913,-0.06519589573144913,1.8001055717468262,2.2941184043884277,1.5465282201766968,2.3201048374176025,337.4540710449219
785.2059936523438,0.0626276284456253,37.135643005371094,0.14249764382839203,121.58419036865234,121.74472045898438,1.7462788820266724,27.446666717529297,27.446666717529297,14.211967468261719,0.06519589573144913,-0.06519589573144913,1.8001055717468262,2.2941184043884277,1.5489522218704224,2.320028066635132,337.4765625
785.2284545898438,0.03145405650138855,15.570032119750977,0.1424831598997116,121.5868911743164,121.74737548828125,1.746246337890625,27.446666717529297,27.446666717529297,14.21198558807373,0.06519589573144913,-0.06519589573144913,1.8001055717468262,2.2941184043884277,1.5524481534957886,2.320065498352051,337.4975891113281
785.2492065429688,0.01728443242609501,8.782877922058105,0.14246617257595062,121.59007263183594,121.75052642822266,1.7461483478546143,27.446666717529297,27.446666717529297,14.212003707885742,0.06519589573144913,-0.06519589573144913,1.8001055717468262,2.2941184043884277,1.5566892623901367,2.3200716972351074,337.51666259765625
785.2645874023438,0.013574615120887756,2.559518575668335,0.14245040714740753,121.59300994873047,121.75342559814453,1.7460302114486694,27.446666717529297,27.446666717529297,14.212018966674805,0.06519589573144913,-0.06519589573144913,1.8001055717468262,2.2941184043884277,1.5597153902053833,2.3199756145477295,337.5348205566406
785.2833862304688,0.02404215931892395,8.072303771972656,0.14243881404399872,121.5951919555664,121.75557708740234,1.7459604740142822,27.446666717529297,27.446666717529297,14.212026596069336,0.06519589573144913,-0.06519589573144913,1.8001055717468262,2.2941184043884277,1.5615490674972534,2.319795846939087,337.55181884765625
785.3014526367188,0.07575580477714539,43.257843017578125,0.14242473244667053,121.59785461425781,121.75820922851562,1.7462095022201538,27.446666717529297,27.446666717529297,14.212043762207031,0.06519589573144913,-0.06519589573144913,1.8001055717468262,2.2941184043884277,1.5639690160751343,2.319697380065918,337.57611083984375
785.3192749023438,0.03591977804899216,4.727422714233398,0.1424109935760498,121.60041809082031,121.76073455810547,1.746274709701538,27.446666717529297,27.446666717529297,14.212057113647461,0.06519589573144913,-0.06519589573144913,1.8001055717468262,2.2941184043884277,1.5671015977859497,2.31982421875,337.59808349609375
785.3370971679688,0.09054162353277206,59.70277404785156,0.14239761233329773,121.60294342041016,121.76322937011719,1.7465647459030151,27.446666717529297,27.446666717529297,14.212075233459473,0.06519589573144913,-0.06519589573144913,1.8001055717468262,2.2941184043884277,1.5706443786621094,2.319934368133545,337.614990234375
785.3554077148438,0.019222179427742958,3.5968708992004395,0.1423841267824173,121.60546875,121.7657241821289,1.7462446689605713,27.446666717529297,27.446666717529297,14.212091445922852,0.06519589573144913,-0.06519589573144913,1.8001055717468262,2.2941184043884277,1.5737940073013306,2.3199400901794434,337.6300048828125
785.3732299804688,0.08424656093120575,59.78227996826172,0.14237068593502045,121.60806274414062,121.76828002929688,1.746355414390564,27.446666717529297,27.446666717529297,14.212103843688965,0.06519589573144913,-0.06519589573144913,1.8001055717468262,2.2941184043884277,1.5762890577316284,2.319793462753296,337.648193359375
785.3952026367188,0.027034731581807137,3.517192840576172,0.1423574686050415,121.61058044433594,121.7707748413086,1.746110200881958,27.446666717529297,27.446666717529297,14.212113380432129,0.06519589573144913,-0.06519589573144913,1.8001055717468262,2.2941184043884277,1.5785300731658936,2.3196604251861572,337.6699523925781
785.4179077148438,0.1345442682504654,71.39930725097656,0.14234167337417603,121.61369323730469,121.77384185791016,1.7466025352478027,27.446666717529297,27.446666717529297,14.212137222290039,0.06519589573144913,-0.06519589573144913,1.8001055717468262,2.2941184043884277,1.5820335149765015,2.3196074962615967,337.69818115234375
785.4325561523438,0.04753141850233078,30.17559051513672,0.1423252522945404,121.61691284179688,121.77701568603516,1.7460235357284546,27.446666717529297,27.446666717529297,14.212157249450684,0.06519589573144913,-0.06519589573144913,1.8001055717468262,2.2941184043884277,1.5866541862487793,2.3193352222442627,337.7206726074219
785.4508666992188,0.025354519486427307,3.5544064044952393,0.14231428503990173,121.61898803710938,121.77906036376953,1.7460424900054932,27.446666717529297,27.446666717529297,14.212170600891113,0.06519589573144913,-0.06519589573144913,1.8001055717468262,2.2941184043884277,1.589332103729248,2.3194632530212402,337.73291015625
785.4691772460938,0.08728990703821182,59.441864013671875,0.1423007845878601,121.62157440185547,121.78162384033203,1.7462434768676758,27.446666717529297,27.446666717529297,14.212183952331543,0.06519589573144913,-0.06519589573144913,1.8001055717468262,2.2941184043884277,1.5919389724731445,2.319408655166626,337.7506408691406
785.4869995117188,0.027622124180197716,3.2203588485717773,0.14228716492652893,121.6241683959961,121.78418731689453,1.7460182905197144,27.446666717529297,27.446666717529297,14.212197303771973,0.06519589573144913,-0.06519589573144913,1.8001055717468262,2.2941184043884277,1.594265103340149,2.319300889968872,337.772705078125
785.5053100585938,0.09196481108665466,54.30022048950195,0.14227420091629028,121.62669372558594,121.78666687011719,1.7463188171386719,27.446666717529297,27.446666717529297,14.212213516235352,0.06519589573144913,-0.06519589573144913,1.8001055717468262,2.2941184043884277,1.5969613790512085,2.3192312717437744,337.79595947265625
785.5233764648438,0.10564235597848892,64.70429229736328,0.14226074516773224,121.62928771972656,121.78923034667969,1.7465016841888428,27.446666717529297,27.446666717529297,14.212231636047363,0.06519589573144913,-0.06519589573144913,1.8001055717468262,2.2941184043884277,1.6005123853683472,2.3193342685699463,337.81573486328125
785.5451049804688,0.027788594365119934,18.23832130432129,0.14224739372730255,121.63184356689453,121.79175567626953,1.7461527585983276,27.446666717529297,27.446666717529297,14.212248802185059,0.06519589573144913,-0.06519589573144913,1.8001055717468262,2.2941184043884277,1.6039822101593018,2.3193273544311523,337.83154296875
785.5614624023438,0.04992407187819481,36.692745208740234,0.14223164319992065,121.63491821289062,121.79479217529297,1.7459938526153564,27.446666717529297,27.446666717529297,14.21226692199707,0.06519589573144913,-0.06519589573144913,1.8001055717468262,2.2941184043884277,1.6072837114334106,2.319091558456421,337.8516845703125
785.5783081054688,0.03539309650659561,18.803062438964844,0.14221958816051483,121.6372299194336,121.79707336425781,1.7459543943405151,27.446666717529297,27.446666717529297,14.212278366088867,0.06519589573144913,-0.06519589573144913,1.8001055717468262,2.2941184043884277,1.6093252897262573,2.319021701812744,337.8706970214844
785.5949096679688,0.03800400346517563,13.974396705627441,0.1422072947025299,121.63961791992188,121.79943084716797,1.7460315227508545,27.446666717529297,27.446666717529297,14.212292671203613,0.06519589573144913,-0.06519589573144913,1.8001055717468262,2.2941184043884277,1.611636996269226,2.3189570903778076,337.8929748535156
785.6117553710938,0.04294821247458458,19.218215942382812,0.14219510555267334,121.6419677734375,121.80174255371094,1.7461920976638794,27.446666717529297,27.446666717529297,14.212309837341309,0.06519589573144913,-0.06519589573144913,1.8001055717468262,2.2941184043884277,1.6146267652511597,2.3190290927886963,337.9130554199219
785.6327514648438,0.03250858932733536,15.572748184204102,0.14218278229236603,121.64434814453125,121.8041000366211,1.746207356452942,27.446666717529297,27.446666717529297,14.212328910827637,0.06519589573144913,-0.06519589573144913,1.8001055717468262,2.2941184043884277,1.617993712425232,2.319108009338379,337.92938232421875
785.6488647460938,0.015885701403021812,3.3845887184143066,0.14216740429401398,121.6473159790039,121.8070297241211,1.7461059093475342,27.446666717529297,27.446666717529297,14.212347984313965,0.06519589573144913,-0.06519589573144913,1.8001055717468262,2.2941184043884277,1.6216516494750977,2.3191299438476562,337.94781494140625
785.6674194335938,0.09321185201406479,69.5666275024414,0.14215584099292755,121.64959716796875,121.80928039550781,1.7462739944458008,27.446666717529297,27.446666717529297,14.212360382080078,0.06519589573144913,-0.06519589573144913,1.8001055717468262,2.2941184043884277,1.6238476037979126,2.3189828395843506,337.96453857421875
785.6852416992188,0.02640063874423504,17.061054229736328,0.14214251935482025,121.6522216796875,121.81187438964844,1.745771050453186,27.446666717529297,27.446666717529297,14.21237564086914,0.06519589573144913,-0.06519589573144913,1.8001055717468262,2.2941184043884277,1.6262800693511963,2.3185973167419434,337.98785400390625
785.7030639648438,0.045595329254865646,20.179840087890625,0.14212971925735474,121.65473937988281,121.8143539428711,1.7458865642547607,27.446666717529297,27.446666717529297,14.212393760681152,0.06519589573144913,-0.06519589573144913,1.8001055717468262,2.2941184043884277,1.6291271448135376,2.3184826374053955,338.0115966796875
785.7208862304688,0.039945945143699646,17.8299560546875,0.14211666584014893,121.65726470947266,121.81684875488281,1.7460010051727295,27.446666717529297,27.446666717529297,14.212413787841797,0.06519589573144913,-0.06519589573144913,1.8001055717468262,2.2941184043884277,1.6327036619186401,2.3185720443725586,338.031005859375
785.7394409179688,0.02770739607512951,12.119315147399902,0.14210347831249237,121.65978240966797,121.8193359375,1.7460057735443115,27.446666717529297,27.446666717529297,14.212433815002441,0.06519589573144913,-0.06519589573144913,1.8001055717468262,2.2941184043884277,1.6361732482910156,2.3186533451080322,338.0470275878906
785.7616577148438,0.026777053251862526,16.94940185546875,0.14208969473838806,121.66240692138672,121.8219223022461,1.7459498643875122,27.446666717529297,27.446666717529297,14.212450981140137,0.06519589573144913,-0.06519589573144913,1.8001055717468262,2.2941184043884277,1.6390745639801025,2.3186066150665283,338.0646057128906
785.7782592773438,0.02060241624712944,2.5666520595550537,0.14207327365875244,121.66554260253906,121.82501983642578,1.7458733320236206,27.446666717529297,27.446666717529297,14.212468147277832,0.06519589573144913,-0.06519589573144913,1.8001055717468262,2.2941184043884277,1.6419813632965088,2.3184306621551514,338.0914306640625
785.7948608398438,0.03215707093477249,4.1770339012146,0.14206121861934662,121.66789245605469,121.82733917236328,1.745881199836731,27.446666717529297,27.446666717529297,14.212485313415527,0.06519589573144913,-0.06519589573144913,1.8001055717468262,2.2941184043884277,1.6445153951644897,2.3182530403137207,338.1138610839844
785.8117065429688,0.09233211725950241,59.35829544067383,0.14204904437065125,121.67024230957031,121.82965087890625,1.746196985244751,27.446666717529297,27.446666717529297,14.212505340576172,0.06519589573144913,-0.06519589573144913,1.8001055717468262,2.2941184043884277,1.647753357887268,2.3182778358459473,338.1330871582031
785.8290405273438,0.02782294526696205,2.8304452896118164,0.14203639328479767,121.67262268066406,121.83200073242188,1.7460204362869263,27.446666717529297,27.446666717529297,14.212523460388184,0.06519589573144913,-0.06519589573144913,1.8001055717468262,2.2941184043884277,1.6511374711990356,2.31836199760437,338.14898681640625
785.8473510742188,0.10188164561986923,69.37956237792969,0.1420234590768814,121.6750717163086,121.83441162109375,1.7462877035140991,27.446666717529297,27.446666717529297,14.212540626525879,0.06519589573144913,-0.06519589573144913,1.8001055717468262,2.2941184043884277,1.6540980339050293,2.318378448486328,338.1648254394531
785.8656616210938,0.02794901467859745,18.25017547607422,0.14200979471206665,121.67765808105469,121.83697509765625,1.7458115816116333,27.446666717529297,27.446666717529297,14.212555885314941,0.06519589573144913,-0.06519589573144913,1.8001055717468262,2.2941184043884277,1.6566176414489746,2.318114995956421,338.185302734375
785.8825073242188,0.02943464182317257,2.991173505783081,0.14199620485305786,121.68024444580078,121.83952331542969,1.7458432912826538,27.446666717529297,27.446666717529297,14.21257495880127,0.06519589573144913,-0.06519589573144913,1.8001055717468262,2.2941184043884277,1.6591455936431885,2.317990779876709,338.2095947265625
785.8956909179688,0.04419247433543205,16.75647735595703,0.141983762383461,121.68262481689453,121.84187316894531,1.7459423542022705,27.446666717529297,27.446666717529297,14.212594985961914,0.06519589573144913,-0.06519589573144913,1.8001055717468262,2.2941184043884277,1.6621372699737549,2.3179211616516113,338.2313232421875
785.9140014648438,0.03830958157777786,4.1709675788879395,0.1419738084077835,121.68448638916016,121.84371948242188,1.746086597442627,27.446666717529297,27.446666717529297,14.212608337402344,0.06519589573144913,-0.06519589573144913,1.8001055717468262,2.2941184043884277,1.6648273468017578,2.318075656890869,338.2453918457031
785.9293823242188,0.0885997787117958,57.26168441772461,0.14196006953716278,121.68707275390625,121.84626770019531,1.746333360671997,27.446666717529297,27.446666717529297,14.212631225585938,0.06519589573144913,-0.06519589573144913,1.8001055717468262,2.2941184043884277,1.6683868169784546,2.3181862831115723,338.26220703125
785.9450073242188,0.03318244591355324,10.037132263183594,0.14194832742214203,121.68923950195312,121.8484115600586,1.746167778968811,27.446666717529297,27.446666717529297,14.212644577026367,0.06519589573144913,-0.06519589573144913,1.8001055717468262,2.2941184043884277,1.6708204746246338,2.3182621002197266,338.2770080566406
785.9647827148438,0.10414014011621475,68.36957550048828,0.14193680882453918,121.69145202636719,121.85057830810547,1.7464840412139893,27.446666717529297,27.446666717529297,14.212657928466797,0.06519589573144913,-0.06519589573144913,1.8001055717468262,2.2941184043884277,1.6728918552398682,2.318281888961792,338.2951965332031
785.9828491210938,0.026070071384310722,14.08880615234375,0.14192253351211548,121.69424438476562,121.85334014892578,1.7459155321121216,27.446666717529297,27.446666717529297,14.212675094604492,0.06519589573144913,-0.06519589573144913,1.8001055717468262,2.2941184043884277,1.6757372617721558,2.3178770542144775,338.3219299316406
785.9957885742188,0.033555250614881516,14.774016380310059,0.141909658908844,121.69679260253906,121.8558578491211,1.745933175086975,27.446666717529297,27.446666717529297,14.212696075439453,0.06519589573144913,-0.06519589573144913,1.8001055717468262,2.2941184043884277,1.6791242361068726,2.3177742958068848,338.3448791503906
786.0138549804688,0.07073128968477249,49.568092346191406,0.14190027117729187,121.69862365722656,121.857666015625,1.746140718460083,27.446666717529297,27.446666717529297,14.2127103805542,0.06519589573144913,-0.06519589573144913,1.8001055717468262,2.2941184043884277,1.6818336248397827,2.317840814590454,338.3583068847656
786.0302124023438,0.10347768664360046,69.6786880493164,0.14188724756240845,121.701171875,121.86018371582031,1.7461966276168823,27.446666717529297,27.446666717529297,14.212732315063477,0.06519589573144913,-0.06519589573144913,1.8001055717468262,2.2941184043884277,1.6853382587432861,2.317807674407959,338.37493896484375
786.0448608398438,0.03551573306322098,22.265777587890625,0.14187517762184143,121.70348358154297,121.86245727539062,1.7458645105361938,27.446666717529297,27.446666717529297,14.21274471282959,0.06519589573144913,-0.06519589573144913,1.8001055717468262,2.2941184043884277,1.6878931522369385,2.317725658416748,338.3912353515625
786.0626831054688,0.03073377162218094,3.743196964263916,0.1418643742799759,121.70555114746094,121.86449432373047,1.7458724975585938,27.446666717529297,27.446666717529297,14.212759017944336,0.06519589573144913,-0.06519589573144913,1.8001055717468262,2.2941184043884277,1.6898560523986816,2.3176870346069336,338.4088134765625
786.0783081054688,0.10404425114393234,61.855072021484375,0.1418515145778656,121.70806121826172,121.86697387695312,1.7462016344070435,27.446666717529297,27.446666717529297,14.212778091430664,0.06519589573144913,-0.06519589573144913,1.8001055717468262,2.2941184043884277,1.6924270391464233,2.3176040649414062,338.4331359863281
786.0988159179688,0.09026645869016647,50.56749725341797,0.1418401151895523,121.71026611328125,121.86915588378906,1.7463210821151733,27.451417922973633,27.451417922973633,14.212799072265625,0.06519589573144913,-0.06519589573144913,1.8001055717468262,2.2941184043884277,1.6952983140945435,2.3177058696746826,338.453125
786.1117553710938,0.07596690207719803,48.06585693359375,0.1418253630399704,121.71316528320312,121.87201690673828,1.7461881637573242,27.451417922973633,27.451417922973633,14.212821960449219,0.06519589573144913,-0.06519589573144913,1.8001055717468262,2.2941184043884277,1.699562668800354,2.31766414642334,338.473876953125
786.1295776367188,0.09317272901535034,69.03829193115234,0.14181582629680634,121.7149887084961,121.87381744384766,1.746376872062683,27.451417922973633,27.451417922973633,14.212836265563965,0.06519589573144913,-0.06519589573144913,1.8001055717468262,2.2941184043884277,1.7019317150115967,2.3178353309631348,338.4857482910156
787.9025268554688,0.04278718680143356,16.150148391723633,0.14072708785533905,121.96444702148438,122.11992645263672,1.7454463243484497,27.451417922973633,27.451417922973633,14.215032577514648,0.06519589573144913,-0.06519589573144913,1.8001055717468262,2.2941184043884277,2.028191089630127,2.314134120941162,340.7087097167969
787.9157104492188,0.07477442920207977,32.3005485534668,0.14071835577487946,121.96684265136719,122.1222915649414,1.7455425262451172,27.451417922973633,27.451417922973633,14.215058326721191,0.06519589573144913,-0.06519589573144913,1.8001055717468262,2.2941184043884277,2.0312564373016357,2.313971519470215,340.73602294921875
787.9342651367188,0.11891362816095352,67.77393341064453,0.1407114863395691,121.96868896484375,122.12411499023438,1.745896577835083,27.451417922973633,27.451417922973633,14.21507740020752,0.06519589573144913,-0.06519589573144913,1.8001055717468262,2.2941184043884277,2.0341105461120605,2.3141074180603027,340.75555419921875
787.9498901367188,0.03644096851348877,13.607291221618652,0.1407018005847931,121.9712905883789,122.1266860961914,1.7453713417053223,27.451417922973633,27.451417922973633,14.215106964111328,0.06519589573144913,-0.06519589573144913,1.8001055717468262,2.2941184043884277,2.0385384559631348,2.313934803009033,340.77862548828125
787.9635620117188,0.04139900207519531,16.908994674682617,0.14069360494613647,121.9734878540039,122.12884521484375,1.7452888488769531,27.451417922973633,27.451417922973633,14.215128898620605,0.06519589573144913,-0.06519589573144913,1.8001055717468262,2.2941184043884277,2.0419116020202637,2.313891649246216,340.7966003417969
787.9818725585938,0.04333949089050293,5.150715351104736,0.1406862437725067,121.97540283203125,122.13072967529297,1.7452759742736816,27.451417922973633,27.451417922973633,14.215147018432617,0.06519589573144913,-0.06519589573144913,1.8001055717468262,2.2941184043884277,2.0443649291992188,2.313863515853882,340.81414794921875
787.9979858398438,0.11257866770029068,58.77986145019531,0.1406765580177307,121.97796630859375,122.13326263427734,1.7455488443374634,27.456167221069336,27.456167221069336,14.215170860290527,0.06519589573144913,-0.06519589573144913,1.8001055717468262,2.2941184043884277,2.0474109649658203,2.3137547969818115,340.8414306640625
788.0116577148438,0.05784202739596367,2.037799835205078,0.14066779613494873,121.980224609375,122.13549041748047,1.745518445968628,27.456167221069336,27.456167221069336,14.215191841125488,0.06519589573144913,-0.06519589573144913,1.8001055717468262,2.2941184043884277,2.050372838973999,2.313793182373047,340.867431640625
788.0297241210938,0.056276094168424606,1.7113853693008423,0.14066044986248016,121.98213958740234,122.13737487792969,1.7456398010253906,27.456167221069336,27.456167221069336,14.215213775634766,0.06519589573144913,-0.06519589573144913,1.8001055717468262,2.2941184043884277,2.0534331798553467,2.31388783454895,340.8873291015625
788.0463256835938,0.053605008870363235,14.962950706481934,0.14065080881118774,121.98467254638672,122.13987731933594,1.7456647157669067,27.456167221069336,27.456167221069336,14.215240478515625,0.06519589573144913,-0.06519589573144913,1.8001055717468262,2.2941184043884277,2.057694435119629,2.313997507095337,340.9096374511719
788.0614624023438,0.0551665760576725,21.71363639831543,0.14064191281795502,121.98699951171875,122.14217376708984,1.7456469535827637,27.456167221069336,27.456167221069336,14.215264320373535,0.06519589573144913,-0.06519589573144913,1.8001055717468262,2.2941184043884277,2.061166286468506,2.3140721321105957,340.9291076660156
788.0780639648438,0.04425794258713722,7.407691478729248,0.1406339406967163,121.98912048339844,122.1442642211914,1.7455710172653198,27.456167221069336,27.456167221069336,14.215283393859863,0.06519589573144913,-0.06519589573144913,1.8001055717468262,2.2941184043884277,2.0637974739074707,2.314051389694214,340.9493408203125
788.0949096679688,0.12492192536592484,68.6400146484375,0.14062555134296417,121.99144744873047,122.14656066894531,1.7458792924880981,27.456167221069336,27.456167221069336,14.215303421020508,0.06519589573144913,-0.06519589573144913,1.8001055717468262,2.2941184043884277,2.066563606262207,2.3139758110046387,340.974853515625
788.1134643554688,0.061621591448783875,21.69298553466797,0.14061714708805084,121.99380493164062,122.14888763427734,1.745591402053833,27.456167221069336,27.456167221069336,14.215325355529785,0.06519589573144913,-0.06519589573144913,1.8001055717468262,2.2941184043884277,2.06980562210083,2.313812732696533,341.00213623046875
788.1320190429688,0.06424040347337723,26.76565170288086,0.14060796797275543,121.99640655517578,122.15145111083984,1.7455757856369019,27.456167221069336,27.456167221069336,14.215354919433594,0.06519589573144913,-0.06519589573144913,1.8001055717468262,2.2941184043884277,2.074174642562866,2.3137874603271484,341.02801513671875
788.1510620117188,0.04100296273827553,9.779727935791016,0.1405986249446869,121.99900817871094,122.15401458740234,1.7454278469085693,27.456167221069336,27.456167221069336,14.215380668640137,0.06519589573144913,-0.06519589573144913,1.8001055717468262,2.2941184043884277,2.078472375869751,2.313819646835327,341.0501403808594
788.1723022460938,0.07068349421024323,33.17983627319336,0.14058908820152283,122.00167846679688,122.15665435791016,1.745412826538086,27.456167221069336,27.456167221069336,14.215404510498047,0.06519589573144913,-0.06519589573144913,1.8001055717468262,2.2941184043884277,2.0821406841278076,2.3137307167053223,341.0738525390625
788.1952514648438,0.15193554759025574,71.14400482177734,0.14057855308055878,122.00465393066406,122.15958404541016,1.7457777261734009,27.456167221069336,27.456167221069336,14.215431213378906,0.06519589573144913,-0.06519589573144913,1.8001055717468262,2.2941184043884277,2.085688352584839,2.3136720657348633,341.1057434082031
788.2184448242188,0.053177811205387115,13.327414512634277,0.1405673325061798,122.00786590576172,122.16275024414062,1.745169758796692,27.456167221069336,27.456167221069336,14.215462684631348,0.06519589573144913,-0.06519589573144913,1.8001055717468262,2.2941184043884277,2.090205430984497,2.31320858001709,341.1436767578125
788.2328491210938,0.03830442950129509,8.028183937072754,0.14055553078651428,122.01111602783203,122.16595458984375,1.7451821565628052,27.456167221069336,27.456167221069336,14.215500831604004,0.06519589573144913,-0.06519589573144913,1.8001055717468262,2.2941184043884277,2.0959088802337646,2.313230037689209,341.17584228515625
788.2506713867188,0.08991974592208862,54.74751663208008,0.14054812490940094,122.01313018798828,122.1679458618164,1.7453243732452393,27.456167221069336,27.456167221069336,14.215522766113281,0.06519589573144913,-0.06519589573144913,1.8001055717468262,2.2941184043884277,2.0993475914001465,2.313228130340576,341.1928405761719
788.2670288085938,0.12055782228708267,69.27598571777344,0.14053867757320404,122.015625,122.17041015625,1.7453422546386719,27.456167221069336,27.456167221069336,14.215548515319824,0.06519589573144913,-0.06519589573144913,1.8001055717468262,2.2941184043884277,2.1028945446014404,2.3131368160247803,341.2151184082031
788.2799682617188,0.05288686603307724,15.78409194946289,0.14052975177764893,122.0179214477539,122.17266082763672,1.7450685501098633,27.456167221069336,27.456167221069336,14.215569496154785,0.06519589573144913,-0.06519589573144913,1.8001055717468262,2.2941184043884277,2.1057143211364746,2.3130202293395996,341.2391662597656
788.2992553710938,0.09908078610897064,52.490570068359375,0.14052273333072662,122.01972961425781,122.17445373535156,1.745338797569275,27.456167221069336,27.456167221069336,14.215587615966797,0.06519589573144913,-0.06519589573144913,1.8001055717468262,2.2941184043884277,2.1080093383789062,2.3129937648773193,341.2601318359375
788.3200073242188,0.09823392331600189,47.63697052001953,0.1405123472213745,122.02243041992188,122.17711639404297,1.7453033924102783,27.456167221069336,27.456167221069336,14.215615272521973,0.06519589573144913,-0.06519589573144913,1.8001055717468262,2.2941184043884277,2.1122090816497803,2.312831163406372,341.2898254394531
788.3383178710938,0.11188885569572449,55.787200927734375,0.1405007392168045,122.02533721923828,122.17997741699219,1.7453458309173584,27.456167221069336,27.456167221069336,14.215649604797363,0.06519589573144913,-0.06519589573144913,1.8001055717468262,2.2941184043884277,2.1171762943267822,2.312833547592163,341.3163757324219
788.3546752929688,0.1092224270105362,55.14103698730469,0.14048999547958374,122.02789306640625,122.18250274658203,1.745398759841919,27.456167221069336,27.456167221069336,14.21567440032959,0.06519589573144913,-0.06519589573144913,1.8001055717468262,2.2941184043884277,2.121006965637207,2.3129374980926514,341.3387145996094
788.3690795898438,0.11973970383405685,61.89862060546875,0.14048027992248535,122.03018188476562,122.18476104736328,1.7455604076385498,27.456167221069336,27.456167221069336,14.215697288513184,0.06519589573144913,-0.06519589573144913,1.8001055717468262,2.2941184043884277,2.123843193054199,2.3130171298980713,341.36181640625
788.3866577148438,0.13012027740478516,69.10148620605469,0.14047183096408844,122.03219604492188,122.1867446899414,1.74576997756958,27.456167221069336,27.456167221069336,14.215717315673828,0.06519589573144913,-0.06519589573144913,1.8001055717468262,2.2941184043884277,2.126286268234253,2.3130953311920166,341.3848876953125
788.4022827148438,0.10459595173597336,49.50588607788086,0.14046193659305573,122.03466033935547,122.18917846679688,1.7456222772598267,27.456167221069336,27.456167221069336,14.215744972229004,0.06519589573144913,-0.06519589573144913,1.8001055717468262,2.2941184043884277,2.1298017501831055,2.312913179397583,341.4140625
788.4169311523438,0.10955619066953659,56.59029006958008,0.14045307040214539,122.0368423461914,122.19133758544922,1.7457606792449951,27.456167221069336,27.456167221069336,14.215770721435547,0.06519589573144913,-0.06519589573144913,1.8001055717468262,2.2941184043884277,2.133533000946045,2.313026189804077,341.43670654296875
788.4349975585938,0.0572604276239872,12.177457809448242,0.1404445916414261,122.03889465332031,122.19335174560547,1.7456220388412476,27.456167221069336,27.456167221069336,14.215790748596191,0.06519589573144913,-0.06519589573144913,1.8001055717468262,2.2941184043884277,2.137056827545166,2.3131628036499023,341.4552917480469
790.0870971679688,0.019039951264858246,2.599123001098633,0.13980147242546082,122.26961517333984,122.42083740234375,1.7440203428268433,27.460914611816406,27.460914611816406,14.218128204345703,-0.052396729588508606,0.052396729588508606,1.8001055717468262,2.2941184043884277,1.3982385396957397,2.3115508556365967,343.72686767578125
790.1056518554688,0.03276842087507248,17.842449188232422,0.13980865478515625,122.2721176147461,122.42330169677734,1.743972659111023,27.460914611816406,27.460914611816406,14.218145370483398,-0.052396729588508606,0.052396729588508606,1.8001055717468262,2.2941184043884277,1.3667134046554565,2.311558485031128,343.74346923828125
790.1283569335938,0.027166083455085754,13.546842575073242,0.13981673121452332,122.27471923828125,122.42586517333984,1.743887186050415,27.460914611816406,27.460914611816406,14.21816349029541,-0.052396729588508606,0.052396729588508606,1.8001055717468262,2.2941184043884277,1.3337968587875366,2.311598062515259,343.7608947753906
790.1493530273438,0.035146236419677734,19.40192413330078,0.13982753455638885,122.27790069580078,122.42900085449219,1.7438644170761108,27.460914611816406,27.460914611816406,14.218183517456055,-0.052396729588508606,0.052396729588508606,1.8001055717468262,2.2941184043884277,1.293535590171814,2.311671257019043,343.78173828125
790.1644897460938,0.030894294381141663,17.96088218688965,0.13983839750289917,122.28085327148438,122.43191528320312,1.743776559829712,27.460914611816406,27.460914611816406,14.218199729919434,-0.052396729588508606,0.052396729588508606,1.8001055717468262,2.2941184043884277,1.2562893629074097,2.3117218017578125,343.8002014160156
790.1832885742188,0.020994137972593307,3.1715240478515625,0.13984668254852295,122.28297424316406,122.43400573730469,1.7437715530395508,27.460914611816406,27.460914611816406,14.218213081359863,-0.052396729588508606,0.052396729588508606,1.8001055717468262,2.2941184043884277,1.229373574256897,2.31184720993042,343.8131408691406
790.2011108398438,0.0907960906624794,55.434425354003906,0.1398577243089676,122.28561401367188,122.43661499023438,1.7440695762634277,27.460914611816406,27.460914611816406,14.218229293823242,-0.052396729588508606,0.052396729588508606,1.8001055717468262,2.2941184043884277,1.1958725452423096,2.3119986057281494,343.8289794921875
790.2194213867188,0.08088252693414688,50.20479965209961,0.13986864686012268,122.28812408447266,122.43907928466797,1.744077444076538,27.460914611816406,27.460914611816406,14.218243598937988,-0.052396729588508606,0.052396729588508606,1.8001055717468262,2.2941184043884277,1.164057731628418,2.3121659755706787,343.84368896484375
790.2372436523438,0.034897975623607635,20.763813018798828,0.13988058269023895,122.29069519042969,122.44161987304688,1.7438780069351196,27.460914611816406,27.460914611816406,14.21825885772705,-0.052396729588508606,0.052396729588508606,1.8001055717468262,2.2941184043884277,1.1313512325286865,2.312276601791382,343.8583984375
790.2553100585938,0.014876031316816807,2.44323468208313,0.13989292085170746,122.29319763183594,122.444091796875,1.7438098192214966,27.460914611816406,27.460914611816406,14.218271255493164,-0.052396729588508606,0.052396729588508606,1.8001055717468262,2.2941184043884277,1.0994733572006226,2.3124256134033203,343.872314453125
790.2733764648438,0.019136955961585045,9.621188163757324,0.13990627229213715,122.29573822021484,122.44659423828125,1.7437626123428345,27.460914611816406,27.460914611816406,14.218286514282227,-0.052396729588508606,0.052396729588508606,1.8001055717468262,2.2941184043884277,1.0671204328536987,2.3125057220458984,343.885986328125
790.2951049804688,0.030894337221980095,20.631555557250977,0.13992030918598175,122.29828643798828,122.4490966796875,1.743782639503479,27.460914611816406,27.460914611816406,14.218299865722656,-0.052396729588508606,0.052396729588508606,1.8001055717468262,2.2941184043884277,1.034706711769104,2.3126256465911865,343.8992919921875
790.3131713867188,0.014637529850006104,10.827668190002441,0.1399381011724472,122.30133819580078,122.45211029052734,1.7436118125915527,27.460914611816406,27.460914611816406,14.218314170837402,-0.052396729588508606,0.052396729588508606,1.8001055717468262,2.2941184043884277,0.9956743717193604,2.3126845359802246,343.914794921875
790.3309936523438,0.02548704482614994,18.96893310546875,0.1399536430835724,122.30388641357422,122.45462036132812,1.7435985803604126,27.460914611816406,27.460914611816406,14.218327522277832,-0.052396729588508606,0.052396729588508606,1.8001055717468262,2.2941184043884277,0.9631791114807129,2.312767267227173,343.9272766113281
790.3495483398438,0.011509868316352367,3.0980873107910156,0.13996943831443787,122.306396484375,122.45709991455078,1.743547797203064,27.460914611816406,27.460914611816406,14.218337059020996,-0.052396729588508606,0.052396729588508606,1.8001055717468262,2.2941184043884277,0.9310634732246399,2.3129024505615234,343.9391784667969
790.3663940429688,0.08842119574546814,58.75982666015625,0.13998663425445557,122.30901336669922,122.45967864990234,1.7438536882400513,27.460914611816406,27.460914611816406,14.218351364135742,-0.052396729588508606,0.052396729588508606,1.8001055717468262,2.2941184043884277,0.8975777626037598,2.313055992126465,343.951171875
790.3795776367188,0.026682699099183083,17.87835121154785,0.14000265300273895,122.31138610839844,122.4620132446289,1.74363112449646,27.460914611816406,27.460914611816406,14.218361854553223,-0.052396729588508606,0.052396729588508606,1.8001055717468262,2.2941184043884277,0.8671282529830933,2.3132028579711914,343.96173095703125
790.3978881835938,0.01705825887620449,4.5924601554870605,0.1400156170129776,122.31324768066406,122.46385192871094,1.743647575378418,27.460914611816406,27.460914611816406,14.218368530273438,-0.052396729588508606,0.052396729588508606,1.8001055717468262,2.2941184043884277,0.8432596921920776,2.313370704650879,343.9697265625
790.4137573242188,0.08968944102525711,60.70734786987305,0.14003433287143707,122.31582641601562,122.46639251708984,1.7439706325531006,27.460914611816406,27.460914611816406,14.21838092803955,-0.052396729588508606,0.052396729588508606,1.8001055717468262,2.2941184043884277,0.8100660443305969,2.3135857582092285,343.9804992675781
790.4281616210938,0.04616984352469444,33.701656341552734,0.1400509625673294,122.31806945800781,122.4686050415039,1.7438362836837769,27.460914611816406,27.460914611816406,14.218389511108398,-0.052396729588508606,0.052396729588508606,1.8001055717468262,2.2941184043884277,0.7812550067901611,2.3137714862823486,343.989501953125
790.4459838867188,0.029974130913615227,23.06975746154785,0.14006660878658295,122.32009887695312,122.4706039428711,1.743807315826416,27.460914611816406,27.460914611816406,14.218398094177246,-0.052396729588508606,0.052396729588508606,1.8001055717468262,2.2941184043884277,0.7550662159919739,2.3139543533325195,343.9974060058594
790.4616088867188,0.006450146436691284,3.7955827713012695,0.14008666574954987,122.32261657714844,122.47309112548828,1.7436692714691162,27.460914611816406,27.460914611816406,14.218406677246094,-0.052396729588508606,0.052396729588508606,1.8001055717468262,2.2941184043884277,0.7226343154907227,2.3140907287597656,344.0068359375
790.4782104492188,0.07182720303535461,60.273902893066406,0.14010505378246307,122.32482147216797,122.47526550292969,1.7438483238220215,27.460914611816406,27.460914611816406,14.218415260314941,-0.052396729588508606,0.052396729588508606,1.8001055717468262,2.2941184043884277,0.6941696405410767,2.314176559448242,344.01483154296875
790.4948120117188,0.018217310309410095,20.368932723999023,0.14012497663497925,122.3271713256836,122.47757720947266,1.7434816360473633,27.460914611816406,27.460914611816406,14.218422889709473,-0.052396729588508606,0.052396729588508606,1.8001055717468262,2.2941184043884277,0.6639087796211243,2.3141613006591797,344.02294921875
790.5162963867188,0.006086157634854317,4.863190174102783,0.14014537632465363,122.32952117919922,122.47989654541016,1.7433876991271973,27.460914611816406,27.460914611816406,14.218430519104004,-0.052396729588508606,0.052396729588508606,1.8001055717468262,2.2941184043884277,0.6335929036140442,2.3142526149749756,344.03076171875
790.5328979492188,0.09621110558509827,61.56146240234375,0.14017260074615479,122.33255767822266,122.4828872680664,1.7437076568603516,27.460914611816406,27.460914611816406,14.2184419631958,-0.052396729588508606,0.052396729588508606,1.8001055717468262,2.2941184043884277,0.5943041443824768,2.3144044876098633,344.04034423828125
790.5512084960938,0.0856097862124443,60.56482696533203,0.14019383490085602,122.33490753173828,122.4852066040039,1.7438157796859741,27.460914611816406,27.460914611816406,14.2184476852417,-0.052396729588508606,0.052396729588508606,1.8001055717468262,2.2941184043884277,0.5638605356216431,2.3147003650665283,344.0473937988281
790.5692749023438,0.019850442185997963,20.646974563598633,0.14021798968315125,122.33749389648438,122.48775482177734,1.7434449195861816,27.460914611816406,27.460914611816406,14.218452453613281,-0.052396729588508606,0.052396729588508606,1.8001055717468262,2.2941184043884277,0.5302808880805969,2.3147430419921875,344.05474853515625
790.5868530273438,0.0026728124357759953,4.335745334625244,0.14024244248867035,122.34005737304688,122.49028015136719,1.743331789970398,27.460914611816406,27.460914611816406,14.218456268310547,-0.052396729588508606,0.052396729588508606,1.8001055717468262,2.2941184043884277,0.49708834290504456,2.3148515224456787,344.0616455078125
790.6017456054688,0.07561473548412323,60.34572982788086,0.14026685059070587,122.34254455566406,122.49273681640625,1.7435600757598877,27.460914611816406,27.460914611816406,14.218461990356445,-0.052396729588508606,0.052396729588508606,1.8001055717468262,2.2941184043884277,0.464750736951828,2.3149449825286865,344.06793212890625
790.6200561523438,0.022696582600474358,21.11899757385254,0.1402875930070877,122.34465789794922,122.49481201171875,1.7433803081512451,27.460914611816406,27.460914611816406,14.218466758728027,-0.052396729588508606,0.052396729588508606,1.8001055717468262,2.2941184043884277,0.43730688095092773,2.315087080001831,344.0729675292969
790.6395874023438,0.002102807629853487,4.326501846313477,0.14031368494033813,122.34725189208984,122.49736785888672,1.7432860136032104,27.460914611816406,27.460914611816406,14.218469619750977,-0.052396729588508606,0.052396729588508606,1.8001055717468262,2.2941184043884277,0.40352317690849304,2.3152220249176025,344.0787658691406
791.9342651367188,0.01005573756992817,5.644043922424316,0.1428445428609848,122.53337860107422,122.68087768554688,1.7438327074050903,27.460914611816406,27.460914611816406,14.217757225036621,0.06519589573144913,-0.06519589573144913,1.8001055717468262,2.2941184043884277,-0.2522628605365753,2.328171491622925,344.06195068359375
