Time_sec,P_deg,Q_deg,R_deg,Pdot_deg_per_sec,Qdot_deg_per_sec,Rdot_deg_per_sec,Vertical_speed_SI,Altitude_MSL_SI,Height_AGL_SI,alpha_deg,IAS0_knots,IAS1_knots,TAS_SI,Left_aileron_deg,Right_aileron_deg,Elevator_deg,Rudder_deg,Roll_deg,Pitch_deg,Yaw_deg
952.8693237304688,-0.02447257936000824,-0.019287366420030594,-0.13056519627571106,-3.707638740539551,11.44155216217041,14.347761154174805,0.14550486207008362,141.25103759765625,141.2466278076172,1.7469381093978882,27.432415008544922,27.432415008544922,14.217227935791016,0.06519589573144913,-0.06519589573144913,1.8001055717468262,2.2941184043884277,-0.19323515892028809,2.3138694763183594,266.3773498535156
952.8898315429688,-0.048945117741823196,0.08887190371751785,0.1381315141916275,-11.278253555297852,70.50446319580078,9.748847961425781,0.1454003006219864,141.25408935546875,141.24961853027344,1.7475221157073975,27.432415008544922,27.432415008544922,14.217283248901367,0.06519589573144913,-0.06519589573144913,1.8001055717468262,2.2941184043884277,-0.19393934309482574,2.313605785369873,266.3778991699219
952.9069213867188,0.025930387899279594,-0.0007714878302067518,0.042678963392972946,0.09270663559436798,20.828392028808594,-15.794495582580566,0.14530128240585327,141.25697326660156,141.25242614746094,1.7473081350326538,27.432415008544922,27.432415008544922,14.217338562011719,0.06519589573144913,-0.06519589573144913,1.8001055717468262,2.2941184043884277,-0.1939171999692917,2.313401699066162,266.3806457519531
952.9242553710938,0.06049420312047005,-0.013273240067064762,-0.22434784471988678,-0.6195670366287231,5.8167595863342285,-12.82339096069336,0.14521901309490204,141.25936889648438,141.25477600097656,1.7474184036254883,27.432415008544922,27.432415008544922,14.217386245727539,0.06519589573144913,-0.06519589573144913,1.8001055717468262,2.2941184043884277,-0.19314177334308624,2.3132593631744385,266.3787536621094
952.9454956054688,0.030154015868902206,0.05384813994169235,-0.3461168706417084,-13.691208839416504,67.86830139160156,-1.8211947679519653,0.14513592422008514,141.26181030273438,141.2571563720703,1.7477110624313354,27.432415008544922,27.432415008544922,14.217434883117676,0.06519589573144913,-0.06519589573144913,1.8001055717468262,2.2941184043884277,-0.1924222707748413,2.3129642009735107,266.3734130859375
952.9640502929688,-0.013058919459581375,-0.010441550984978676,-0.19837407767772675,-7.89648962020874,30.014677047729492,14.937718391418457,0.14503438770771027,141.26478576660156,141.2600555419922,1.747087836265564,27.432415008544922,27.432415008544922,14.217490196228027,0.06519589573144913,-0.06519589573144913,1.8001055717468262,2.2941184043884277,-0.19230252504348755,2.3121461868286133,266.36712646484375
952.9855346679688,-0.03206609934568405,-0.01818087324500084,0.04937446862459183,-1.3666048049926758,7.9065165519714355,12.070216178894043,0.14494533836841583,141.26739501953125,141.26260375976562,1.747026801109314,27.432415008544922,27.432415008544922,14.21753978729248,0.06519589573144913,-0.06519589573144913,1.8001055717468262,2.2941184043884277,-0.19283528625965118,2.3117542266845703,266.36602783203125
953.0040893554688,-0.012278715148568153,0.0841563269495964,0.12855932116508484,-8.357925415039062,69.2879638671875,-9.09070873260498,0.14484232664108276,141.27040100097656,141.2655487060547,1.7475467920303345,27.432415008544922,27.432415008544922,14.217601776123047,0.06519589573144913,-0.06519589573144913,1.8001055717468262,2.2941184043884277,-0.193146750330925,2.3115334510803223,266.36895751953125
953.0255737304688,0.054534703493118286,0.003213320393115282,-0.16157422959804535,-2.6658341884613037,23.54599380493164,-15.357549667358398,0.14475326240062714,141.2729949951172,141.26809692382812,1.7474169731140137,27.432415008544922,27.432415008544922,14.217655181884766,0.06519589573144913,-0.06519589573144913,1.8001055717468262,2.2941184043884277,-0.19248780608177185,2.3114211559295654,266.36846923828125
953.0438842773438,0.047146860510110855,-0.02713925577700138,-0.3633898198604584,-2.620783567428589,4.678346157073975,-3.374965190887451,0.14465078711509705,141.2760009765625,141.27102661132812,1.7473193407058716,27.432415008544922,27.432415008544922,14.217719078063965,0.06519589573144913,-0.06519589573144913,1.8001055717468262,2.2941184043884277,-0.19152776896953583,2.311049461364746,266.3621520996094
953.0653686523438,-0.016839295625686646,0.05027740076184273,-0.2495788335800171,-15.124855041503906,68.45276641845703,15.316019058227539,0.1445639580488205,141.278564453125,141.27352905273438,1.7474514245986938,27.432415008544922,27.432415008544922,14.217774391174316,0.06519589573144913,-0.06519589573144913,1.8001055717468262,2.2941184043884277,-0.19137530028820038,2.3105344772338867,266.3560791015625
953.0846557617188,-0.03621549904346466,-0.0028547788970172405,0.045437224209308624,-5.290332794189453,30.758102416992188,12.21934700012207,0.14446192979812622,141.2815704345703,141.27647399902344,1.7468832731246948,27.432415008544922,27.432415008544922,14.217832565307617,0.06519589573144913,-0.06519589573144913,1.8001055717468262,2.2941184043884277,-0.19194915890693665,2.309756278991699,266.35430908203125
953.1046752929688,-0.004086005967110395,-0.010135414078831673,0.1399487853050232,2.2352395057678223,7.157459735870361,-6.936915874481201,0.14437009394168854,141.28427124023438,141.2790985107422,1.7469474077224731,27.432415008544922,27.432415008544922,14.217889785766602,0.06519589573144913,-0.06519589573144913,1.8001055717468262,2.2941184043884277,-0.19230054318904877,2.3095250129699707,266.3568420410156
953.1246948242188,0.039954375475645065,0.07765477895736694,-0.15654978156089783,-10.412639617919922,68.93666076660156,-15.199275016784668,0.14427508413791656,141.2870635986328,141.28182983398438,1.7474749088287354,27.432415008544922,27.432415008544922,14.21795654296875,0.06519589573144913,-0.06519589573144913,1.8001055717468262,2.2941184043884277,-0.19166545569896698,2.309393882751465,266.3565673828125
953.1493530273438,0.04513093829154968,-0.005958536174148321,-0.3456047475337982,-6.0539960861206055,25.496591567993164,-3.8727118968963623,0.14418023824691772,141.28985595703125,141.28456115722656,1.7471257448196411,27.432415008544922,27.432415008544922,14.21802043914795,0.06519589573144913,-0.06519589573144913,1.8001055717468262,2.2941184043884277,-0.1907586008310318,2.3089840412139893,266.3509521484375
953.1683959960938,-0.009865091182291508,-0.03439898043870926,-0.2140800803899765,-3.8163633346557617,5.215922832489014,15.393227577209473,0.14406363666057587,141.2932891845703,141.28793334960938,1.746829628944397,27.432415008544922,27.432415008544922,14.218096733093262,0.06519589573144913,-0.06519589573144913,1.8001055717468262,2.2941184043884277,-0.19062285125255585,2.308298110961914,266.34326171875
953.1891479492188,-0.047677237540483475,0.06064758822321892,0.04636412858963013,-11.880555152893066,68.89615631103516,12.219280242919922,0.14397379755973816,141.2959442138672,141.29051208496094,1.7470452785491943,27.432415008544922,27.432415008544922,14.218155860900879,0.06519589573144913,-0.06519589573144913,1.8001055717468262,2.2941184043884277,-0.19119463860988617,2.30780029296875,266.34197998046875
953.2079467773438,-0.005595821421593428,0.008814549073576927,0.156268909573555,-1.5789858102798462,29.377315521240234,-6.668891429901123,0.1438755840063095,141.298828125,141.29335021972656,1.7467694282531738,27.432415008544922,27.432415008544922,14.218222618103027,0.06519589573144913,-0.06519589573144913,1.8001055717468262,2.2941184043884277,-0.19152943789958954,2.307372808456421,266.344970703125
953.2296752929688,0.0558306910097599,-0.007192013785243034,-0.12979784607887268,0.6907616257667542,6.130388259887695,-15.90296459197998,0.14378662407398224,141.30145263671875,141.2958984375,1.7469452619552612,27.432415008544922,27.432415008544922,14.21828842163086,0.06519589573144913,-0.06519589573144913,1.8001055717468262,2.2941184043884277,-0.1909094601869583,2.3073067665100098,266.3451232910156
953.2479858398438,0.03379317745566368,0.07747012376785278,-0.3524090349674225,-13.633773803710938,69.34236145019531,-4.493348598480225,0.14368440210819244,141.30447387695312,141.29884338378906,1.7474018335342407,27.432415008544922,27.432415008544922,14.218363761901855,0.06519589573144913,-0.06519589573144913,1.8001055717468262,2.2941184043884277,-0.18987981975078583,2.307044506072998,266.33917236328125
953.2694702148438,-0.0019342157756909728,-0.004342119209468365,-0.26173898577690125,-8.00686264038086,25.912099838256836,15.159733772277832,0.14359815418720245,141.30702209472656,141.30133056640625,1.7471075057983398,27.432415008544922,27.432415008544922,14.218426704406738,0.06519589573144913,-0.06519589573144913,1.8001055717468262,2.2941184043884277,-0.18966646492481232,2.306725263595581,266.3330993652344
953.2897338867188,-0.032025568187236786,-0.022331001237034798,0.036002323031425476,-1.201507568359375,6.222748756408691,12.392494201660156,0.14349737763404846,141.30999755859375,141.3042449951172,1.7469475269317627,27.432415008544922,27.432415008544922,14.21849536895752,0.06519589573144913,-0.06519589573144913,1.8001055717468262,2.2941184043884277,-0.1902523785829544,2.306302785873413,266.33111572265625
953.3092651367188,-0.019304895773530006,0.07648799568414688,0.15002502501010895,-8.609895706176758,69.3465805053711,-6.074337482452393,0.14340288937091827,141.31280517578125,141.3070068359375,1.7473000288009644,27.432415008544922,27.432415008544922,14.218564987182617,0.06519589573144913,-0.06519589573144913,1.8001055717468262,2.2941184043884277,-0.19061581790447235,2.306011915206909,266.3337707519531
953.3312377929688,0.053000569343566895,0.0037085057701915503,-0.13930749893188477,-2.7086522579193115,25.480056762695312,-15.643227577209473,0.14331193268299103,141.31552124023438,141.3096466064453,1.7470533847808838,27.432415008544922,27.432415008544922,14.218635559082031,0.06519589573144913,-0.06519589573144913,1.8001055717468262,2.2941184043884277,-0.18997728824615479,2.3057730197906494,266.3338317871094
953.3551635742188,0.048927098512649536,-0.02477993071079254,-0.3556390702724457,-2.5812926292419434,5.050487518310547,-3.8622639179229736,0.1432102769613266,141.31857299804688,141.3126220703125,1.7469456195831299,27.432415008544922,27.432415008544922,14.21871566772461,0.06519589573144913,-0.06519589573144913,1.8001055717468262,2.2941184043884277,-0.188961923122406,2.305417776107788,266.3276672363281
953.3790893554688,-0.029732905328273773,0.07788103073835373,-0.2126930058002472,-14.97933292388916,70.31640625,15.278413772583008,0.14310035109519958,141.32188415527344,141.3158721923828,1.747129201889038,27.432415008544922,27.432415008544922,14.218802452087402,0.06519589573144913,-0.06519589573144913,1.8001055717468262,2.2941184043884277,-0.18883876502513885,2.3047702312469482,266.320068359375
953.4081420898438,-0.03501302748918533,-0.006485637743026018,0.1064215749502182,-3.726066827774048,24.48187828063965,11.597362518310547,0.14299024641513824,141.3251953125,141.31910705566406,1.7464925050735474,27.432415008544922,27.432415008544922,14.218884468078613,0.06519589573144913,-0.06519589573144913,1.8001055717468262,2.2941184043884277,-0.18954777717590332,2.304055690765381,266.3193359375
953.4301147460938,0.039662089198827744,-0.016827866435050964,0.06584970653057098,2.1921892166137695,8.431822776794434,-15.075504302978516,0.1428568810224533,141.3292236328125,141.32302856445312,1.7464144229888916,27.432415008544922,27.432415008544922,14.218993186950684,0.06519589573144913,-0.06519589573144913,1.8001055717468262,2.2941184043884277,-0.18941663205623627,2.303583860397339,266.323974609375
953.4481811523438,0.056014351546764374,0.08431664109230042,-0.2822591960430145,-12.228804588317871,69.35323333740234,-12.504546165466309,0.14275646209716797,141.33226013183594,141.3260040283203,1.746944785118103,27.432415008544922,27.432415008544922,14.219079971313477,0.06519589573144913,-0.06519589573144913,1.8001055717468262,2.2941184043884277,-0.18811827898025513,2.3033554553985596,266.3210144042969
953.4674682617188,0.03754359483718872,0.0031201790552586317,-0.37713727355003357,-7.090595245361328,26.065406799316406,1.027607798576355,0.14267367124557495,141.33474731445312,141.3284454345703,1.7468037605285645,27.432415008544922,27.432415008544922,14.219149589538574,0.06519589573144913,-0.06519589573144913,1.8001055717468262,2.2941184043884277,-0.18734358251094818,2.3031930923461914,266.3146057128906
953.4904174804688,-0.016682470217347145,-0.018804950639605522,-0.17465469241142273,-3.43386173248291,6.701714992523193,14.6187744140625,0.1425856649875641,141.33741760253906,141.33103942871094,1.7467440366744995,27.432415008544922,27.432415008544922,14.219220161437988,0.06519589573144913,-0.06519589573144913,1.8001055717468262,2.2941184043884277,-0.1874070018529892,2.3028945922851562,266.30902099609375
953.5145874023438,-0.04775501415133476,0.08687172830104828,0.11598103493452072,-11.35387134552002,69.82576751708984,10.391429901123047,0.14248163998126984,141.34059143066406,141.33413696289062,1.7471168041229248,27.441917419433594,27.441917419433594,14.219305038452148,0.06519589573144913,-0.06519589573144913,1.8001055717468262,2.2941184043884277,-0.1880994439125061,2.3025619983673096,266.308837890625
953.5316772460938,0.03293439373373985,-0.002230169950053096,0.0275945495814085,-0.28187423944473267,22.050630569458008,-15.488815307617188,0.1423724740743637,141.3439178466797,141.33738708496094,1.7465872764587402,27.441917419433594,27.441917419433594,14.219400405883789,0.06519589573144913,-0.06519589573144913,1.8001055717468262,2.2941184043884277,-0.1879686564207077,2.302081346511841,266.3118896484375
953.5516967773438,0.06393513828516006,-0.008741306141018867,-0.23902997374534607,-0.8797688484191895,6.671042442321777,-12.840831756591797,0.14229567348957062,141.3462677001953,141.33969116210938,1.746689796447754,27.441917419433594,27.441917419433594,14.219467163085938,0.06519589573144913,-0.06519589573144913,1.8001055717468262,2.2941184043884277,-0.18711937963962555,2.301973581314087,266.30975341796875
953.5744018554688,0.024796422570943832,0.07036930322647095,-0.36864304542541504,-14.018913269042969,68.50586700439453,-0.5147861838340759,0.1422063261270523,141.34902954101562,141.34239196777344,1.7470641136169434,27.441917419433594,27.441917419433594,14.219550132751465,0.06519589573144913,-0.06519589573144913,1.8001055717468262,2.2941184043884277,-0.1862994283437729,2.3017308712005615,266.3031311035156
953.6000366210938,-0.02251134067773819,-0.006457776762545109,-0.1586434245109558,-6.872086524963379,27.82489013671875,14.658961296081543,0.142105370759964,141.35215759277344,141.34544372558594,1.7464131116867065,27.441917419433594,27.441917419433594,14.219635009765625,0.06519589573144913,-0.06519589573144913,1.8001055717468262,2.2941184043884277,-0.18634933233261108,2.3009908199310303,266.296630859375
953.6217651367188,-0.026328742504119873,-0.01995992101728916,0.1551496982574463,0.23142777383327484,5.539027214050293,8.938806533813477,0.14199163019657135,141.35569763183594,141.34889221191406,1.7462468147277832,27.441917419433594,27.441917419433594,14.219732284545898,0.06519589573144913,-0.06519589573144913,1.8001055717468262,2.2941184043884277,-0.18709658086299896,2.3005099296569824,266.2972412109375
953.6395874023438,0.022563975304365158,0.08992566913366318,0.009256199933588505,-8.675408363342285,70.28479766845703,-16.871902465820312,0.14189577102661133,141.35867309570312,141.351806640625,1.746741533279419,27.441917419433594,27.441917419433594,14.219822883605957,0.06519589573144913,-0.06519589573144913,1.8001055717468262,2.2941184043884277,-0.1868772804737091,2.3003103733062744,266.2999572753906
953.6615600585938,0.061153754591941833,0.010269922204315662,-0.2609022259712219,-4.349276065826416,24.412992477416992,-11.674944877624512,0.14181703329086304,141.3611297607422,141.3542022705078,1.746686577796936,27.441917419433594,27.441917419433594,14.219897270202637,0.06519589573144913,-0.06519589573144913,1.8001055717468262,2.2941184043884277,-0.1859712153673172,2.300323486328125,266.29730224609375
953.6798706054688,0.03160381689667702,-0.02196384035050869,-0.3620043396949768,-3.2535340785980225,4.946382522583008,2.13185453414917,0.14172084629535675,141.36415100097656,141.35716247558594,1.746605634689331,27.441917419433594,27.441917419433594,14.219989776611328,0.06519589573144913,-0.06519589573144913,1.8001055717468262,2.2941184043884277,-0.1851835995912552,2.3000473976135254,266.289794921875
953.7011108398438,-0.03380768001079559,0.05861928313970566,-0.1493852585554123,-13.777005195617676,68.39629364013672,14.42331314086914,0.14164137840270996,141.36666870117188,141.359619140625,1.7467824220657349,27.441917419433594,27.441917419433594,14.220063209533691,0.06519589573144913,-0.06519589573144913,1.8001055717468262,2.2941184043884277,-0.18533819913864136,2.2996573448181152,266.2849426269531
953.7272338867188,-0.03423939645290375,0.007825342006981373,0.12055843323469162,-4.6141839027404785,30.742542266845703,10.75251293182373,0.1415495127439499,141.3695831298828,141.3624725341797,1.7463234663009644,27.441917419433594,27.441917419433594,14.220147132873535,0.06519589573144913,-0.06519589573144913,1.8001055717468262,2.2941184043884277,-0.18594789505004883,2.299128770828247,266.2850646972656
953.7501831054688,0.03887644782662392,-0.013961372897028923,0.038099635392427444,2.753453254699707,4.3462982177734375,-15.474160194396973,0.14143702387809753,141.3731689453125,141.365966796875,1.746292233467102,27.441917419433594,27.441917419433594,14.220258712768555,0.06519589573144913,-0.06519589573144913,1.8001055717468262,2.2941184043884277,-0.1858004480600357,2.2989003658294678,266.2887268066406
953.7680053710938,0.05040070414543152,0.08870718628168106,-0.30251798033714294,-12.635239601135254,70.1826400756836,-10.892807006835938,0.1413392871618271,141.37631225585938,141.36903381347656,1.7467213869094849,27.441917419433594,27.441917419433594,14.220357894897461,0.06519589573144913,-0.06519589573144913,1.8001055717468262,2.2941184043884277,-0.18451671302318573,2.298633337020874,266.2850341796875
953.7870483398438,0.02944542095065117,0.004429700784385204,-0.35941073298454285,-7.046280384063721,25.063926696777344,3.462769031524658,0.14126329123973846,141.37875366210938,141.37142944335938,1.74655282497406,27.441917419433594,27.441917419433594,14.22043514251709,0.06519589573144913,-0.06519589573144913,1.8001055717468262,2.2941184043884277,-0.18388378620147705,2.2985360622406006,266.2786865234375
953.8107299804688,-0.021530820056796074,-0.014963052235543728,-0.12667718529701233,-2.9247167110443115,6.749313831329346,14.187066078186035,0.14118273556232452,141.38136291503906,141.3739776611328,1.7464849948883057,27.441917419433594,27.441917419433594,14.22050952911377,0.06519589573144913,-0.06519589573144913,1.8001055717468262,2.2941184043884277,-0.18406765162944794,2.2983062267303467,266.27398681640625
953.8273315429688,-0.0436495766043663,0.09482377022504807,0.1531597226858139,-10.84423828125,70.16265106201172,7.981937885284424,0.14108361303806305,141.38461303710938,141.37713623046875,1.7468712329864502,27.441917419433594,27.441917419433594,14.220608711242676,0.06519589573144913,-0.06519589573144913,1.8001055717468262,2.2941184043884277,-0.18473218381404877,2.2980639934539795,266.27490234375
953.8495483398438,0.02322516031563282,0.0176327396184206,0.030698763206601143,-0.11209964752197266,22.409652709960938,-16.8126163482666,0.1410141885280609,141.3868865966797,141.37936401367188,1.7468585968017578,27.441917419433594,27.441917419433594,14.220678329467773,0.06519589573144913,-0.06519589573144913,1.8001055717468262,2.2941184043884277,-0.18470507860183716,2.298248767852783,266.27691650390625
953.8681030273438,0.060314569622278214,-0.016696328297257423,-0.293498158454895,-1.0387474298477173,3.476203203201294,-10.123273849487305,0.14092279970645905,141.38992309570312,141.38232421875,1.7468078136444092,27.441917419433594,27.441917419433594,14.22077465057373,0.06519589573144913,-0.06519589573144913,1.8001055717468262,2.2941184043884277,-0.1836932748556137,2.2981746196746826,266.2732849121094
953.8893432617188,0.013347881846129894,0.05894625186920166,-0.3390543758869171,-14.481583595275879,69.03528594970703,4.234884262084961,0.1408478021621704,141.39247131347656,141.3848114013672,1.7469083070755005,27.441917419433594,27.441917419433594,14.220854759216309,0.06519589573144913,-0.06519589573144913,1.8001055717468262,2.2941184043884277,-0.18311315774917603,2.2978134155273438,266.2669677734375
953.9081420898438,-0.028480280190706253,-0.0012958815786987543,-0.07298611849546432,-6.42476224899292,30.311172485351562,13.738083839416504,0.14076264202594757,141.39537048339844,141.3876495361328,1.746232271194458,27.441917419433594,27.441917419433594,14.220943450927734,0.06519589573144913,-0.06519589573144913,1.8001055717468262,2.2941184043884277,-0.18335455656051636,2.297128915786743,266.2625732421875
953.9293823242188,-0.027072571218013763,-0.006203313823789358,0.14636269211769104,-0.1809232234954834,7.83436393737793,8.371652603149414,0.140687495470047,141.39794921875,141.39016723632812,1.7462024688720703,27.441917419433594,27.441917419433594,14.22101879119873,0.06519589573144913,-0.06519589573144913,1.8001055717468262,2.2941184043884277,-0.18387854099273682,2.2969465255737305,266.26361083984375
953.9481811523438,0.019682055339217186,0.09286995977163315,0.007553611882030964,-8.607796669006348,69.2640380859375,-16.223114013671875,0.1406034380197525,141.40084838867188,141.39300537109375,1.7467451095581055,27.441917419433594,27.441917419433594,14.221114158630371,0.06519589573144913,-0.06519589573144913,1.8001055717468262,2.2941184043884277,-0.18371470272541046,2.296969413757324,266.2660827636719
953.9694213867188,0.05876811966300011,0.008355101570487022,-0.2640867829322815,-4.359236717224121,23.900875091552734,-10.828376770019531,0.1405295431613922,141.40341186523438,141.3955078125,1.746551752090454,27.441917419433594,27.441917419433594,14.221198081970215,0.06519589573144913,-0.06519589573144913,1.8001055717468262,2.2941184043884277,-0.18279719352722168,2.2969448566436768,266.26324462890625
953.9896850585938,0.029235396534204483,-0.0197585616260767,-0.3444181978702545,-3.278205633163452,5.317228317260742,2.8000643253326416,0.14044718444347382,141.40631103515625,141.39834594726562,1.7463992834091187,27.441917419433594,27.441917419433594,14.221290588378906,0.06519589573144913,-0.06519589573144913,1.8001055717468262,2.2941184043884277,-0.18208828568458557,2.296693801879883,266.25616455078125
954.0067749023438,-0.0383569598197937,0.06988411396741867,-0.10566817969083786,-13.459981918334961,68.99337005615234,14.042582511901855,0.14036959409713745,141.40908813476562,141.4010467529297,1.7465547323226929,27.441917419433594,27.441917419433594,14.221376419067383,0.06519589573144913,-0.06519589573144913,1.8001055717468262,2.2941184043884277,-0.18230654299259186,2.296315908432007,266.25146484375
954.0245971679688,-0.03531016409397125,0.015107943676412106,0.10944406688213348,-4.633671760559082,29.71683692932129,11.076579093933105,0.14030428230762482,141.4114227294922,141.4033203125,1.7463622093200684,27.441917419433594,27.441917419433594,14.22144889831543,0.06519589573144913,-0.06519589573144913,1.8001055717468262,2.2941184043884277,-0.18283480405807495,2.2962112426757812,266.2517395019531
954.0431518554688,0.01037117000669241,0.0014504455029964447,0.09961269050836563,2.762524127960205,6.611377716064453,-12.799718856811523,0.14023683965206146,141.41384887695312,141.40570068359375,1.7464344501495361,27.441917419433594,27.441917419433594,14.221525192260742,0.06519589573144913,-0.06519589573144913,1.8001055717468262,2.2941184043884277,-0.18299803137779236,2.296269178390503,266.25433349609375
954.0663452148438,0.04336712136864662,0.07819630205631256,-0.1876346468925476,-10.932896614074707,68.53863525390625,-13.706421852111816,0.14016768336296082,141.4163818359375,141.40817260742188,1.7468457221984863,27.441917419433594,27.441917419433594,14.221611022949219,0.06519589573144913,-0.06519589573144913,1.8001055717468262,2.2941184043884277,-0.18228082358837128,2.296298027038574,266.2532043457031
954.0836791992188,0.0363403856754303,-0.005736411549150944,-0.3496340811252594,-6.517148494720459,26.190170288085938,-0.4914218783378601,0.14008255302906036,141.4195556640625,141.41127014160156,1.746098279953003,27.446666717529297,27.446666717529297,14.221711158752441,0.06519589573144913,-0.06519589573144913,1.8001055717468262,2.2941184043884277,-0.18128593266010284,2.2956578731536865,266.2461853027344
954.1054077148438,-0.011788052506744862,-0.012573043815791607,-0.18410919606685638,-3.9944911003112793,8.273198127746582,14.997349739074707,0.14001929759979248,141.4219207763672,141.41357421875,1.745998501777649,27.446666717529297,27.446666717529297,14.221786499023438,0.06519589573144913,-0.06519589573144913,1.8001055717468262,2.2941184043884277,-0.1812795102596283,2.2954068183898926,266.24127197265625
954.1242065429688,-0.03512686491012573,0.01729876734316349,0.10257985442876816,-4.440492153167725,27.86842918395996,11.614273071289062,0.13994070887565613,141.4248809814453,141.41647338867188,1.7460626363754272,27.446666717529297,27.446666717529297,14.221878051757812,0.06519589573144913,-0.06519589573144913,1.8001055717468262,2.2941184043884277,-0.18189069628715515,2.2951853275299072,266.2408142089844
954.1452026367188,0.00949240755289793,0.0034867797512561083,0.11781123280525208,2.8144888877868652,6.187871932983398,-11.91160774230957,0.13987302780151367,141.4274444580078,141.41897583007812,1.7462005615234375,27.446666717529297,27.446666717529297,14.221961975097656,0.06519589573144913,-0.06519589573144913,1.8001055717468262,2.2941184043884277,-0.18207719922065735,2.2952961921691895,266.2436828613281
954.1642456054688,0.045320987701416016,0.09023267030715942,-0.20509377121925354,-11.329507827758789,69.53374481201172,-13.514967918395996,0.13979873061180115,141.43031311035156,141.42176818847656,1.7466856241226196,27.446666717529297,27.446666717529297,14.22205638885498,0.06519589573144913,-0.06519589573144913,1.8001055717468262,2.2941184043884277,-0.18120548129081726,2.2953593730926514,266.24237060546875
954.1835327148438,0.04048039764165878,0.003043112577870488,-0.33983057737350464,-6.2381134033203125,24.53977394104004,-1.287886381149292,0.13973207771778107,141.4329071044922,141.42430114746094,1.746328592300415,27.446666717529297,27.446666717529297,14.222138404846191,0.06519589573144913,-0.06519589573144913,1.8001055717468262,2.2941184043884277,-0.18038491904735565,2.295206308364868,266.2366943359375
954.2062377929688,-0.0086269062012434,-0.015073828399181366,-0.18728414177894592,-3.865201234817505,6.772192001342773,14.938575744628906,0.13966555893421173,141.43553161621094,141.42686462402344,1.7461564540863037,27.446666717529297,27.446666717529297,14.222223281860352,0.06519589573144913,-0.06519589573144913,1.8001055717468262,2.2941184043884277,-0.18030127882957458,2.294968843460083,266.231201171875
954.2235717773438,-0.04610311985015869,0.09088803082704544,0.10914726555347443,-11.618722915649414,69.80763244628906,11.20952033996582,0.1395883858203888,141.43862915039062,141.42990112304688,1.7464368343353271,27.446666717529297,27.446666717529297,14.222322463989258,0.06519589573144913,-0.06519589573144913,1.8001055717468262,2.2941184043884277,-0.180901437997818,2.294741630554199,266.2308044433594
954.2455444335938,0.007151042576879263,0.0202968530356884,0.10217223316431046,-0.3629792034626007,24.65517234802246,-12.785407066345215,0.1395297348499298,141.4409942626953,141.4322052001953,1.746338129043579,27.446666717529297,27.446666717529297,14.222395896911621,0.06519589573144913,-0.06519589573144913,1.8001055717468262,2.2941184043884277,-0.18105940520763397,2.2948837280273438,266.2333068847656
954.2640991210938,0.06079907715320587,-0.009425105527043343,-0.22859376668930054,-0.30334070324897766,4.051580905914307,-12.45667839050293,0.1394568830728531,141.44398498535156,141.43511962890625,1.7463055849075317,27.446666717529297,27.446666717529297,14.222492218017578,0.06519589573144913,-0.06519589573144913,1.8001055717468262,2.2941184043884277,-0.18015794456005096,2.294912099838257,266.2314453125
954.2853393554688,0.025369793176651,0.06632959097623825,-0.33677977323532104,-13.992182731628418,68.92526245117188,-0.04966258257627487,0.13939669728279114,141.44650268554688,141.43759155273438,1.7464672327041626,27.446666717529297,27.446666717529297,14.222575187683105,0.06519589573144913,-0.06519589573144913,1.8001055717468262,2.2941184043884277,-0.17941461503505707,2.294694662094116,266.2257385253906
954.3065795898438,-0.018443187698721886,0.00253712828271091,-0.14032606780529022,-7.261070251464844,29.963716506958008,14.520768165588379,0.13932867348194122,141.44940185546875,141.44041442871094,1.7458128929138184,27.446666717529297,27.446666717529297,14.222665786743164,0.06519589573144913,-0.06519589573144913,1.8001055717468262,2.2941184043884277,-0.17939051985740662,2.2941296100616455,266.2202453613281
954.3231811523438,-0.02771388366818428,-0.00643544178456068,0.12796905636787415,-0.5925029516220093,7.151309967041016,10.628257751464844,0.1392611265182495,141.45228576660156,141.4432373046875,1.7457085847854614,27.446666717529297,27.446666717529297,14.22275447845459,0.06519589573144913,-0.06519589573144913,1.8001055717468262,2.2941184043884277,-0.17995187640190125,2.2939515113830566,266.22052001953125
954.3468627929688,0.0027079072315245867,0.07606985419988632,0.08910659700632095,-7.785429000854492,68.0935287475586,-14.270734786987305,0.13920891284942627,141.45455932617188,141.44544982910156,1.7461085319519043,27.446666717529297,27.446666717529297,14.222829818725586,0.06519589573144913,-0.06519589573144913,1.8001055717468262,2.2941184043884277,-0.1800154745578766,2.293989658355713,266.2229309082031
954.3634643554688,0.059897713363170624,0.00949984509497881,-0.25982466340065,-4.773146152496338,27.499916076660156,-11.203825950622559,0.13913552463054657,141.45777893066406,141.44859313964844,1.7455824613571167,27.446666717529297,27.446666717529297,14.22293758392334,0.06519589573144913,-0.06519589573144913,1.8001055717468262,2.2941184043884277,-0.17887137830257416,2.293565034866333,266.22027587890625
954.3854370117188,0.03619680553674698,-0.0024849330075085163,-0.3291018009185791,-3.6731364727020264,7.7397780418396,1.788389801979065,0.1390843540430069,141.4600372314453,141.4508056640625,1.745644211769104,27.446666717529297,27.446666717529297,14.22301197052002,0.06519589573144913,-0.06519589573144913,1.8001055717468262,2.2941184043884277,-0.17824450135231018,2.293534278869629,266.21502685546875
954.4064331054688,-0.024113230407238007,0.020979290828108788,-0.09785020351409912,-6.8386383056640625,29.969297409057617,14.037949562072754,0.13901732861995697,141.46302795410156,141.45372009277344,1.7457430362701416,27.446666717529297,27.446666717529297,14.22310733795166,0.06519589573144913,-0.06519589573144913,1.8001055717468262,2.2941184043884277,-0.17833945155143738,2.293382406234741,266.21002197265625
954.4227905273438,-0.024828286841511726,-0.000185182158020325,0.15114684402942657,-0.003714250400662422,6.084627151489258,8.626452445983887,0.13895376026630402,141.46588134765625,141.45651245117188,1.7457820177078247,27.446666717529297,27.446666717529297,14.223196983337402,0.06519589573144913,-0.06519589573144913,1.8001055717468262,2.2941184043884277,-0.17888106405735016,2.2934389114379883,266.2110290527344
954.4401245117188,0.012753516435623169,0.07668263465166092,0.04962208867073059,-7.9814677238464355,68.26786041259766,-16.263683319091797,0.13890515267848969,141.46810913085938,141.45867919921875,1.7461708784103394,27.446666717529297,27.446666717529297,14.223272323608398,0.06519589573144913,-0.06519589573144913,1.8001055717468262,2.2941184043884277,-0.178822323679924,2.293536901473999,266.2131652832031
954.4594116210938,0.0567791722714901,0.019219620153307915,-0.21749557554721832,-4.680447578430176,29.392921447753906,-12.419840812683105,0.1388542503118515,141.470458984375,141.4609832763672,1.7459907531738281,27.446666717529297,27.446666717529297,14.223349571228027,0.06519589573144913,-0.06519589573144913,1.8001055717468262,2.2941184043884277,-0.1780315339565277,2.2935380935668945,266.21136474609375
954.4823608398438,0.03950323909521103,-0.008023763075470924,-0.3369823098182678,-3.1134068965911865,6.253655433654785,-0.39995914697647095,0.13879860937595367,141.47308349609375,141.46353149414062,1.7459070682525635,27.446666717529297,27.446666717529297,14.22343635559082,0.06519589573144913,-0.06519589573144913,1.8001055717468262,2.2941184043884277,-0.17726007103919983,2.293483018875122,266.2055358886719
954.4994506835938,-0.03475074842572212,0.08863899856805801,-0.13435165584087372,-14.046160697937012,69.71390533447266,14.417102813720703,0.13873380422592163,141.47621154785156,141.46658325195312,1.7461339235305786,27.446666717529297,27.446666717529297,14.223536491394043,0.06519589573144913,-0.06519589573144913,1.8001055717468262,2.2941184043884277,-0.1773027777671814,2.293254852294922,266.1995849609375
954.5211791992188,-0.03477498143911362,0.01924094930291176,0.08708490431308746,-4.326447010040283,26.28101348876953,11.723700523376465,0.13868574798107147,141.47853088378906,141.46885681152344,1.745967984199524,27.446666717529297,27.446666717529297,14.22360897064209,0.06519589573144913,-0.06519589573144913,1.8001055717468262,2.2941184043884277,-0.17781962454319,2.2933402061462402,266.1994323730469
954.5402221679688,0.013748043216764927,-0.0003232475137338042,0.12264201790094376,2.915724039077759,5.000582218170166,-11.42064380645752,0.13862603902816772,141.48147583007812,141.47174072265625,1.7459453344345093,27.446666717529297,27.446666717529297,14.223699569702148,0.06519589573144913,-0.06519589573144913,1.8001055717468262,2.2941184043884277,-0.17800386250019073,2.2934534549713135,266.2027893066406
954.5614624023438,0.04870598018169403,0.08273013681173325,-0.17942704260349274,-10.991393089294434,69.43663024902344,-14.626229286193848,0.13857519626617432,141.48406982421875,141.47427368164062,1.74626624584198,27.446666717529297,27.446666717529297,14.223786354064941,0.06519589573144913,-0.06519589573144913,1.8001055717468262,2.2941184043884277,-0.17716659605503082,2.2934799194335938,266.20196533203125
954.5802612304688,0.04427177831530571,0.003144138026982546,-0.3537971079349518,-6.568445205688477,26.667680740356445,-2.080380439758301,0.13851961493492126,141.48695373535156,141.47708129882812,1.7456707954406738,27.446666717529297,27.446666717529297,14.223880767822266,0.06519589573144913,-0.06519589573144913,1.8001055717468262,2.2941184043884277,-0.17613010108470917,2.293123245239258,266.1956787109375
954.6015014648438,-0.006648632697761059,-0.009409387595951557,-0.20903374254703522,-4.219225883483887,7.620240211486816,15.178740501403809,0.13847115635871887,141.48951721191406,141.47958374023438,1.74552321434021,27.446666717529297,27.446666717529297,14.223959922790527,0.06519589573144913,-0.06519589573144913,1.8001055717468262,2.2941184043884277,-0.17600266635417938,2.292947292327881,266.18994140625
954.6198120117188,-0.04682677239179611,0.09058643132448196,0.07650864124298096,-11.749869346618652,69.028076171875,11.84182357788086,0.13841724395751953,141.49240112304688,141.48240661621094,1.745871901512146,27.446666717529297,27.446666717529297,14.224050521850586,0.06519589573144913,-0.06519589573144913,1.8001055717468262,2.2941184043884277,-0.17658451199531555,2.2928736209869385,266.18896484375
954.6412963867188,-0.0018485899781808257,0.025377517566084862,0.1373792439699173,-0.9169369339942932,26.513198852539062,-8.997834205627441,0.13837112486362457,141.49488830566406,141.48483276367188,1.7457451820373535,27.451417922973633,27.451417922973633,14.224129676818848,0.06519589573144913,-0.06519589573144913,1.8001055717468262,2.2941184043884277,-0.1768435388803482,2.293023109436035,266.1916198730469
954.6603393554688,0.05986739322543144,-0.0009708639699965715,-0.1824411302804947,0.21589596569538116,4.570806980133057,-13.988994598388672,0.13831834495067596,141.49781799316406,141.48768615722656,1.7457767724990845,27.451417922973633,27.451417922973633,14.224223136901855,0.06519589573144913,-0.06519589573144913,1.8001055717468262,2.2941184043884277,-0.1760445386171341,2.2931954860687256,266.1908874511719
954.6813354492188,0.03178458288311958,0.07623619586229324,-0.33404073119163513,-13.749947547912598,69.07994842529297,-2.4369163513183594,0.1382729709148407,141.50039672851562,141.49021911621094,1.7460167407989502,27.451417922973633,27.451417922973633,14.2243070602417,0.06519589573144913,-0.06519589573144913,1.8001055717468262,2.2941184043884277,-0.1751895397901535,2.2931220531463623,266.1854553222656
954.7003784179688,-0.00997355580329895,0.006909876596182585,-0.19203120470046997,-7.810971260070801,29.084712982177734,15.071195602416992,0.13822375237941742,141.5032501220703,141.4929962158203,1.745416522026062,27.451417922973633,27.451417922973633,14.224395751953125,0.06519589573144913,-0.06519589573144913,1.8001055717468262,2.2941184043884277,-0.17500492930412292,2.292724609375,266.1794128417969
954.7211303710938,-0.029933152720332146,-0.0005043450510129333,0.06404934823513031,-1.3208723068237305,7.749108791351318,12.123093605041504,0.1381797045469284,141.50584411621094,141.4955291748047,1.7453500032424927,27.451417922973633,27.451417922973633,14.22447395324707,0.06519589573144913,-0.06519589573144913,1.8001055717468262,2.2941184043884277,-0.17550072073936462,2.2926712036132812,266.17852783203125
954.7401733398438,-0.011742413975298405,0.09941602498292923,0.14966575801372528,-8.373894691467285,69.2584457397461,-8.43023681640625,0.138132706284523,141.5086669921875,141.49827575683594,1.7458467483520508,27.451417922973633,27.451417922973633,14.224563598632812,0.06519589573144913,-0.06519589573144913,1.8001055717468262,2.2941184043884277,-0.17576158046722412,2.292829990386963,266.181640625
954.7611694335938,0.05714680999517441,0.02128790132701397,-0.14490872621536255,-2.764909505844116,24.390003204345703,-15.388615608215332,0.13809026777744293,141.51126098632812,141.5008087158203,1.7456810474395752,27.451417922973633,27.451417922973633,14.224645614624023,0.06519589573144913,-0.06519589573144913,1.8001055717468262,2.2941184043884277,-0.1750306934118271,2.2930123805999756,266.1815185546875
954.7802124023438,0.0506717711687088,-0.006897323299199343,-0.3448811173439026,-2.6320362091064453,5.043824195861816,-3.6477062702178955,0.13804477453231812,141.5141143798828,141.50360107421875,1.7456058263778687,27.451417922973633,27.451417922973633,14.224736213684082,0.06519589573144913,-0.06519589573144913,1.8001055717468262,2.2941184043884277,-0.1740112453699112,2.2930493354797363,266.1757507324219
954.8014526367188,-0.014380671083927155,0.07326352596282959,-0.2357262521982193,-15.201044082641602,68.76126861572266,15.3302001953125,0.13800476491451263,141.51669311523438,141.50611877441406,1.7457678318023682,27.451417922973633,27.451417922973633,14.224815368652344,0.06519589573144913,-0.06519589573144913,1.8001055717468262,2.2941184043884277,-0.17377611994743347,2.2928879261016846,266.16973876953125
954.8200073242188,-0.033247288316488266,0.015629353001713753,0.0560876838862896,-5.18947696685791,29.9736270904541,12.247305870056152,0.13796095550060272,141.51959228515625,141.50894165039062,1.7452319860458374,27.451417922973633,27.451417922973633,14.22490119934082,0.06519589573144913,-0.06519589573144913,1.8001055717468262,2.2941184043884277,-0.1742752194404602,2.292576313018799,266.16827392578125
954.8414916992188,-0.003993192221969366,0.009357297793030739,0.15515628457069397,2.1237576007843018,7.29913854598999,-6.153904914855957,0.13792313635349274,141.52210998535156,141.5113983154297,1.745300054550171,27.451417922973633,27.451417922973633,14.224977493286133,0.06519589573144913,-0.06519589573144913,1.8001055717468262,2.2941184043884277,-0.1745767444372177,2.2927145957946777,266.1708984375
954.8600463867188,0.04191270470619202,0.10282314568758011,-0.15447720885276794,-10.644331932067871,69.61251831054688,-14.888940811157227,0.1378806233406067,141.5250244140625,141.51425170898438,1.7458524703979492,27.451417922973633,27.451417922973633,14.225071907043457,0.06519589573144913,-0.06519589573144913,1.8001055717468262,2.2941184043884277,-0.17383797466754913,2.292971134185791,266.1708068847656
954.8812866210938,0.047446850687265396,0.015065401792526245,-0.326009601354599,-5.770874977111816,23.987173080444336,-3.948657751083374,0.13784463703632355,141.52755737304688,141.5167236328125,1.7456074953079224,27.451417922973633,27.451417922973633,14.22514820098877,0.06519589573144913,-0.06519589573144913,1.8001055717468262,2.2941184043884277,-0.17297042906284332,2.293090581893921,266.1658935546875
954.8998413085938,0.00009480222070124,-0.009883789345622063,-0.22969697415828705,-3.9916882514953613,5.763156414031982,13.73134708404541,0.1378048211336136,141.5304412841797,141.51953125,1.7454109191894531,27.451417922973633,27.451417922973633,14.225234031677246,0.06519589573144913,-0.06519589573144913,1.8001055717468262,2.2941184043884277,-0.17271213233470917,2.2930080890655518,266.159423828125
954.9213256835938,-0.04302355274558067,0.0773739293217659,0.02802581898868084,-12.153800964355469,68.67240142822266,12.503558158874512,0.1377710998058319,141.532958984375,141.52200317382812,1.7456004619598389,27.451417922973633,27.451417922973633,14.22530746459961,0.06519589573144913,-0.06519589573144913,1.8001055717468262,2.2941184043884277,-0.17315728962421417,2.2929160594940186,266.1578674316406
954.9401245117188,-0.007170871831476688,0.023334862664341927,0.17653511464595795,-1.8603466749191284,28.993988037109375,-3.933490037918091,0.13773289322853088,141.535888671875,141.5248565673828,1.7451691627502441,27.451417922973633,27.451417922973633,14.225395202636719,0.06519589573144913,-0.06519589573144913,1.8001055717468262,2.2941184043884277,-0.17347204685211182,2.2927703857421875,266.160888671875
954.9613647460938,0.056482791900634766,0.01012431737035513,-0.09853906184434891,0.9909031987190247,6.261081695556641,-16.535356521606445,0.13770021498203278,141.53843688964844,141.52734375,1.745284080505371,27.451417922973633,27.451417922973633,14.225472450256348,0.06519589573144913,-0.06519589573144913,1.8001055717468262,2.2941184043884277,-0.17285481095314026,2.29300594329834,266.1616516113281
954.9801635742188,0.03981616348028183,0.09453453868627548,-0.3365784287452698,-13.49448299407959,69.4924545288086,-5.688605785369873,0.13766467571258545,141.5413360595703,141.53018188476562,1.7457071542739868,27.451417922973633,27.451417922973633,14.225563049316406,0.06519589573144913,-0.06519589573144913,1.8001055717468262,2.2941184043884277,-0.17174753546714783,2.2931509017944336,266.1563720703125
955.0014038085938,0.0057899607345461845,0.013253213837742805,-0.27584630250930786,-7.800605773925781,26.345365524291992,12.292718887329102,0.13763388991355896,141.54388427734375,141.5326690673828,1.7453556060791016,27.451417922973633,27.451417922973633,14.22563648223877,0.06519589573144913,-0.06519589573144913,1.8001055717468262,2.2941184043884277,-0.17139297723770142,2.2931270599365234,266.150146484375
955.0202026367188,-0.029603758826851845,-0.003342319279909134,0.023987798020243645,-1.437047004699707,6.46462345123291,12.695109367370605,0.13760016858577728,141.54678344726562,141.53549194335938,1.7451881170272827,27.451417922973633,27.451417922973633,14.225717544555664,0.06519589573144913,-0.06519589573144913,1.8001055717468262,2.2941184043884277,-0.1718839555978775,2.2930891513824463,266.14788818359375
955.0394897460938,-0.02555430866777897,0.0890958309173584,0.17040510475635529,-9.093611717224121,69.00585174560547,-1.7803536653518677,0.13757142424583435,141.54934692382812,141.53797912597656,1.7455183267593384,27.451417922973633,27.451417922973633,14.225790023803711,0.06519589573144913,-0.06519589573144913,1.8001055717468262,2.2941184043884277,-0.172256737947464,2.2931833267211914,266.1502685546875
955.0629272460938,0.04849759489297867,0.025492588058114052,-0.0861542671918869,-2.4503231048583984,27.2402286529541,-16.18035125732422,0.13754266500473022,141.55197143554688,141.54055786132812,1.745282769203186,27.451417922973633,27.451417922973633,14.225870132446289,0.06519589573144913,-0.06519589573144913,1.8001055717468262,2.2941184043884277,-0.17172771692276,2.293297529220581,266.1512145996094
955.0795288085938,0.05302724242210388,-0.0071122110821306705,-0.3400766849517822,-2.324505090713501,4.626070976257324,-4.853370666503906,0.13750909268856049,141.55516052246094,141.54367065429688,1.7451499700546265,27.451417922973633,27.451417922973633,14.225966453552246,0.06519589573144913,-0.06519589573144913,1.8001055717468262,2.2941184043884277,-0.17057687044143677,2.2933547496795654,266.1453857421875
955.1015014648438,-0.003985920455306768,0.0659729465842247,-0.2630823254585266,-15.386907577514648,68.14693450927734,14.75039005279541,0.13748635351657867,141.5574188232422,141.54588317871094,1.745302677154541,27.451417922973633,27.451417922973633,14.226031303405762,0.06519589573144913,-0.06519589573144913,1.8001055717468262,2.2941184043884277,-0.17027908563613892,2.2932558059692383,266.1400146484375
955.1203002929688,-0.038834430277347565,0.060239505022764206,0.04433756321668625,-9.2459716796875,52.566734313964844,12.412508964538574,0.13745704293251038,141.56040954589844,141.54879760742188,1.744920253753662,27.451417922973633,27.451417922973633,14.226116180419922,0.06519589573144913,-0.06519589573144913,1.8001055717468262,2.2941184043884277,-0.1707126796245575,2.292924165725708,266.1380615234375
955.1412963867188,-0.021290248259902,0.09836093336343765,0.1667054444551468,-8.799138069152832,69.09986877441406,-4.312812328338623,0.13743223249912262,141.56297302246094,141.55130004882812,1.7452765703201294,27.451417922973633,27.451417922973633,14.226186752319336,0.06519589573144913,-0.06519589573144913,1.8001055717468262,2.2941184043884277,-0.17104680836200714,2.2932283878326416,266.14068603515625
955.1600952148438,0.055166084319353104,0.024144530296325684,-0.12746313214302063,-2.704810380935669,25.421611785888672,-15.389581680297852,0.13740548491477966,141.56582641601562,141.5540771484375,1.7450165748596191,27.451417922973633,27.451417922973633,14.22626781463623,0.06519589573144913,-0.06519589573144913,1.8001055717468262,2.2941184043884277,-0.17032821476459503,2.2933547496795654,266.14111328125
955.1793823242188,0.05364467576146126,0.004431644454598427,-0.3191715180873871,-2.51739764213562,6.107363224029541,-5.040288925170898,0.13738249242305756,141.56838989257812,141.5565948486328,1.7450608015060425,27.451417922973633,27.451417922973633,14.22634220123291,0.06519589573144913,-0.06519589573144913,1.8001055717468262,2.2941184043884277,-0.1693965643644333,2.2935311794281006,266.13641357421875
955.2020874023438,-0.005471324548125267,0.08326985687017441,-0.2615041434764862,-14.79563045501709,68.583251953125,11.109642028808594,0.13736002147197723,141.57101440429688,141.5591583251953,1.745351791381836,27.451417922973633,27.451417922973633,14.226417541503906,0.06519589573144913,-0.06519589573144913,1.8001055717468262,2.2941184043884277,-0.16903941333293915,2.2935781478881836,266.13037109375
955.2230834960938,-0.030994456261396408,0.01815931685268879,0.05143235623836517,-5.07509183883667,28.69512939453125,12.341670036315918,0.1373344510793686,141.57411193847656,141.56216430664062,1.7447494268417358,27.451417922973633,27.451417922973633,14.226502418518066,0.06519589573144913,-0.06519589573144913,1.8001055717468262,2.2941184043884277,-0.1694771945476532,2.2933003902435303,266.12847900390625
955.2462768554688,0.001882196869701147,0.010938713327050209,0.16030512750148773,2.298069953918457,6.521355628967285,-6.793866157531738,0.13731145858764648,141.57696533203125,141.56497192382812,1.7448070049285889,27.456167221069336,27.456167221069336,14.226581573486328,0.06519589573144913,-0.06519589573144913,1.8001055717468262,2.2941184043884277,-0.1697475165128708,2.2935125827789307,266.1315612792969
955.2633666992188,0.046619147062301636,0.11410222947597504,-0.18167926371097565,-11.170100212097168,70.5957260131836,-14.631035804748535,0.13728757202625275,141.58013916015625,141.56805419921875,1.7453805208206177,27.456167221069336,27.456167221069336,14.22667121887207,0.06519589573144913,-0.06519589573144913,1.8001055717468262,2.2941184043884277,-0.16879449784755707,2.2938382625579834,266.1311340332031
955.2868041992188,0.04829884693026543,0.023686964064836502,-0.3307214081287384,-5.679872512817383,22.335628509521484,-3.455333709716797,0.13727039098739624,141.58245849609375,141.57032775878906,1.745280385017395,27.456167221069336,27.456167221069336,14.226738929748535,0.06519589573144913,-0.06519589573144913,1.8001055717468262,2.2941184043884277,-0.167982280254364,2.294172525405884,266.1263427734375
955.3063354492188,-0.004178688861429691,-0.00908987782895565,-0.2109946459531784,-3.700119972229004,4.4578857421875,14.598946571350098,0.13724862039089203,141.58566284179688,141.5734405517578,1.7450495958328247,27.456167221069336,27.456167221069336,14.226822853088379,0.06519589573144913,-0.06519589573144913,1.8001055717468262,2.2941184043884277,-0.16774827241897583,2.2942049503326416,266.11932373046875
955.3241577148438,-0.04448751360177994,0.08494655042886734,0.055700335651636124,-12.046355247497559,69.58132934570312,12.180245399475098,0.13723184168338776,141.58831787109375,141.5760498046875,1.7452009916305542,27.456167221069336,27.456167221069336,14.226893424987793,0.06519589573144913,-0.06519589573144913,1.8001055717468262,2.2941184043884277,-0.16824407875537872,2.2941317558288574,266.1181640625
955.3461303710938,-0.01029125228524208,0.03165178745985031,0.1632496863603592,-1.7860181331634521,29.145000457763672,-4.932631015777588,0.1372169554233551,141.59075927734375,141.5784149169922,1.7450015544891357,27.456167221069336,27.456167221069336,14.226957321166992,0.06519589573144913,-0.06519589573144913,1.8001055717468262,2.2941184043884277,-0.1685495674610138,2.294294595718384,266.1206970214844
955.3634643554688,0.058271802961826324,0.0067184544168412685,-0.14380988478660583,0.6227924823760986,4.867288112640381,-14.818340301513672,0.13719992339611053,141.59375,141.5813446044922,1.7450108528137207,27.456167221069336,27.456167221069336,14.227039337158203,0.06519589573144913,-0.06519589573144913,1.8001055717468262,2.2941184043884277,-0.16782212257385254,2.2946019172668457,266.120849609375
955.3854370117188,0.039850834757089615,0.0788249596953392,-0.3105936646461487,-13.304983139038086,68.62416076660156,-4.79728364944458,0.13718771934509277,141.5961151123047,141.58364868164062,1.7452715635299683,27.456167221069336,27.456167221069336,14.227105140686035,0.06519589573144913,-0.06519589573144913,1.8001055717468262,2.2941184043884277,-0.16697387397289276,2.2946996688842773,266.11651611328125
955.4066772460938,0.0019715300295501947,0.01481632050126791,-0.24012494087219238,-7.891280174255371,30.02765464782715,11.365612030029297,0.13717330992221832,141.59912109375,141.58657836914062,1.7446151971817017,27.456167221069336,27.456167221069336,14.22718334197998,0.06519589573144913,-0.06519589573144913,1.8001055717468262,2.2941184043884277,-0.1665560007095337,2.2943665981292725,266.10992431640625
955.4235229492188,-0.02841911092400551,0.00427953852340579,0.051965516060590744,-1.396596908569336,7.236765384674072,12.408446311950684,0.13715998828411102,141.60202026367188,141.58941650390625,1.7445192337036133,27.456167221069336,27.456167221069336,14.227255821228027,0.06519589573144913,-0.06519589573144913,1.8001055717468262,2.2941184043884277,-0.16702605783939362,2.294419765472412,266.1083068847656
955.4467163085938,-0.02208433672785759,0.08911992609500885,0.16599822044372559,-8.771069526672363,68.34383392333984,-3.514348030090332,0.13715004920959473,141.6043243408203,141.5916748046875,1.7449300289154053,27.456167221069336,27.456167221069336,14.227313995361328,0.06519589573144913,-0.06519589573144913,1.8001055717468262,2.2941184043884277,-0.1673203557729721,2.294642448425293,266.11065673828125
955.4647827148438,0.05529992654919624,0.030624758452177048,-0.14078599214553833,-3.6343119144439697,29.63901710510254,-14.63968276977539,0.13713745772838593,141.6074981689453,141.59475708007812,1.7445374727249146,27.456167221069336,27.456167221069336,14.227397918701172,0.06519589573144913,-0.06519589573144913,1.8001055717468262,2.2941184043884277,-0.16649697721004486,2.2946245670318604,266.1109619140625
955.4857788085938,0.05148664116859436,0.011206022463738918,-0.3108172118663788,-2.676760196685791,6.751333713531494,-4.346163272857666,0.13712823390960693,141.60997009277344,141.59716796875,1.7446409463882446,27.456167221069336,27.456167221069336,14.227460861206055,0.06519589573144913,-0.06519589573144913,1.8001055717468262,2.2941184043884277,-0.16562619805335999,2.294888496398926,266.1064758300781
955.5065307617188,-0.011859104037284851,0.09637517482042313,-0.23409776389598846,-14.762496948242188,69.04454040527344,11.952848434448242,0.13711848855018616,141.6128387451172,141.5999755859375,1.745039939880371,27.456167221069336,27.456167221069336,14.227534294128418,0.06519589573144913,-0.06519589573144913,1.8001055717468262,2.2941184043884277,-0.16530591249465942,2.295062780380249,266.1002197265625
955.5304565429688,-0.03127318620681763,0.02364960126578808,0.05240660533308983,-4.855396747589111,27.124252319335938,12.378384590148926,0.13710959255695343,141.6156768798828,141.6027374267578,1.74464750289917,27.456167221069336,27.456167221069336,14.227598190307617,0.06519589573144913,-0.06519589573144913,1.8001055717468262,2.2941184043884277,-0.16575361788272858,2.2951011657714844,266.0987548828125
955.5477905273438,0.008999867364764214,0.008665909059345722,0.16595390439033508,2.6837992668151855,4.981934070587158,-7.934437274932861,0.13710053265094757,141.6189422607422,141.60594177246094,1.744632601737976,27.456167221069336,27.456167221069336,14.227678298950195,0.06519589573144913,-0.06519589573144913,1.8001055717468262,2.2941184043884277,-0.16599451005458832,2.2953872680664062,266.1025390625
955.5702514648438,0.04911145195364952,0.08986424654722214,-0.11249534040689468,-10.18319320678711,69.3066177368164,-16.634077072143555,0.13709509372711182,141.62132263183594,141.60824584960938,1.745010256767273,27.456167221069336,27.456167221069336,14.227741241455078,0.06519589573144913,-0.06519589573144913,1.8001055717468262,2.2941184043884277,-0.16526558995246887,2.2956275939941406,266.1029052734375
955.5897827148438,0.05367225036025047,0.01740093342959881,-0.3520352244377136,-6.539164066314697,27.784305572509766,-4.557136058807373,0.13708928227424622,141.6243896484375,141.6112518310547,1.7444392442703247,27.456167221069336,27.456167221069336,14.227818489074707,0.06519589573144913,-0.06519589573144913,1.8001055717468262,2.2941184043884277,-0.1639803647994995,2.295464038848877,266.096923828125
955.6124877929688,0.0014425846748054028,0.003064168384298682,-0.24773943424224854,-4.7866644859313965,7.406500339508057,15.648466110229492,0.13708476722240448,141.62705993652344,141.61386108398438,1.7443726062774658,27.456167221069336,27.456167221069336,14.22788143157959,0.06519589573144913,-0.06519589573144913,1.8001055717468262,2.2941184043884277,-0.1636790633201599,2.295527935028076,266.09051513671875
955.6329956054688,-0.048287395387887955,0.10922116041183472,0.06606736034154892,-11.992749214172363,69.76178741455078,12.139089584350586,0.13708040118217468,141.6301727294922,141.6168975830078,1.7448103427886963,27.456167221069336,27.456167221069336,14.22795295715332,0.06519589573144913,-0.06519589573144913,1.8001055717468262,2.2941184043884277,-0.16426938772201538,2.29571270942688,266.0889587402344
955.6517944335938,-0.0007871186244301498,0.03226635232567787,0.1595674455165863,-0.6494579911231995,24.332307815551758,-7.670431613922119,0.1370769888162613,141.6329803466797,141.61964416503906,1.7446194887161255,27.456167221069336,27.456167221069336,14.228015899658203,0.06519589573144913,-0.06519589573144913,1.8001055717468262,2.2941184043884277,-0.1645480990409851,2.296041250228882,266.0921630859375
955.6742553710938,0.058646026998758316,0.01686077192425728,-0.12923824787139893,0.6549409627914429,5.456183910369873,-15.583850860595703,0.13707488775253296,141.63555908203125,141.62216186523438,1.744767189025879,27.456167221069336,27.456167221069336,14.228076934814453,0.06519589573144913,-0.06519589573144913,1.8001055717468262,2.2941184043884277,-0.1638607531785965,2.296459436416626,266.0923156738281
955.6918334960938,0.032377175986766815,0.10491287708282471,-0.34415221214294434,-13.923162460327148,70.29878997802734,-3.4894893169403076,0.13707414269447327,141.63864135742188,141.6251678466797,1.7451472282409668,27.456167221069336,27.456167221069336,14.228151321411133,0.06519589573144913,-0.06519589573144913,1.8001055717468262,2.2941184043884277,-0.1627669483423233,2.2967147827148438,266.08624267578125
955.7116088867188,-0.0037640936207026243,0.021633440628647804,-0.2295009046792984,-7.665667533874512,25.024995803833008,15.426865577697754,0.13707414269447327,141.64105224609375,141.6275177001953,1.7448694705963135,27.456167221069336,27.456167221069336,14.228203773498535,0.06519589573144913,-0.06519589573144913,1.8001055717468262,2.2941184043884277,-0.1625823974609375,2.2969114780426025,266.0807800292969
955.7345581054688,-0.030343834310770035,0.006016911007463932,0.044505342841148376,-1.3035690784454346,6.462627410888672,12.510963439941406,0.13707523047924042,141.6437530517578,141.6301727294922,1.7447408437728882,27.456167221069336,27.456167221069336,14.22826099395752,0.06519589573144913,-0.06519589573144913,1.8001055717468262,2.2941184043884277,-0.16308753192424774,2.297072172164917,266.0793151855469
955.7518920898438,-0.01568765565752983,0.11606352031230927,0.1759854108095169,-8.787653923034668,70.72626495361328,-6.352118492126465,0.137078195810318,141.64691162109375,141.63323974609375,1.7451266050338745,27.456167221069336,27.456167221069336,14.228330612182617,0.06519589573144913,-0.06519589573144913,1.8001055717468262,2.2941184043884277,-0.16340988874435425,2.2973668575286865,266.0828857421875
955.7716674804688,0.0547633096575737,0.03289615362882614,-0.09471366554498672,-1.7459526062011719,21.760520935058594,-16.77364158630371,0.13708099722862244,141.6492919921875,141.63555908203125,1.7450319528579712,27.451417922973633,27.451417922973633,14.228382110595703,0.06519589573144913,-0.06519589573144913,1.8001055717468262,2.2941184043884277,-0.16280701756477356,2.297842264175415,266.08355712890625
955.7938842773438,0.058507345616817474,0.005431714467704296,-0.32494649291038513,-2.1914150714874268,4.583731174468994,-6.331638813018799,0.1370857208967209,141.65200805664062,141.63821411132812,1.7449771165847778,27.451417922973633,27.451417922973633,14.228440284729004,0.06519589573144913,-0.06519589573144913,1.8001055717468262,2.2941184043884277,-0.16175810992717743,2.298147439956665,266.0788269042969
955.8136596679688,-0.009773182682693005,0.09547168761491776,-0.2729218006134033,-15.077710151672363,70.29304504394531,11.076242446899414,0.1370929330587387,141.65505981445312,141.6411895751953,1.7450892925262451,27.451417922973633,27.451417922973633,14.228504180908203,0.06519589573144913,-0.06519589573144913,1.8001055717468262,2.2941184043884277,-0.1613231599330902,2.2981603145599365,266.071533203125
955.8314819335938,-0.03357661888003349,0.021043814718723297,0.008111349307000637,-5.0687031745910645,26.659563064575195,13.007482528686523,0.13710004091262817,141.65777587890625,141.6438446044922,1.7446072101593018,27.451417922973633,27.451417922973633,14.228556632995605,0.06519589573144913,-0.06519589573144913,1.8001055717468262,2.2941184043884277,-0.1617901474237442,2.2981841564178467,266.06927490234375
