Time_sec,Q_deg,Qdot_deg_per_sec,Vertical_speed_SI,Altitude_MSL_SI,Height_AGL_SI,alpha_deg,IAS0_knots,IAS1_knots,TAS_SI,Left_aileron_deg,Right_aileron_deg,Elevator_deg,Rudder_deg,Roll_deg,Pitch_deg,Yaw_deg
662.197998046875,0.023419149219989777,27.414106369018555,0.1403995007276535,103.94488525390625,104.08634948730469,1.7423677444458008,27.460914611816406,27.460914611816406,14.20800495147705,0.06519589573144913,-0.06519589573144913,1.8001055717468262,2.2941184043884277,-0.4260779917240143,2.310068368911743,331.1317138671875
662.218994140625,0.004662178456783295,3.8888251781463623,0.14041070640087128,103.94815063476562,104.08966827392578,1.7423884868621826,27.460914611816406,27.460914611816406,14.208022117614746,0.06519589573144913,-0.06519589573144913,1.8001055717468262,2.2941184043884277,-0.42644986510276794,2.3103013038635254,331.13092041015625
662.23974609375,0.09769060462713242,70.23563385009766,0.14042137563228607,103.95111083984375,104.0926742553711,1.742773413658142,27.460914611816406,27.460914611816406,14.208041191101074,0.06519589573144913,-0.06519589573144913,1.8001055717468262,2.2941184043884277,-0.42580142617225647,2.310378313064575,331.1243896484375
662.25439453125,0.008603486232459545,24.118436813354492,0.14043176174163818,103.95403289794922,104.09563446044922,1.7423021793365479,27.460914611816406,27.460914611816406,14.208056449890137,0.06519589573144913,-0.06519589573144913,1.8001055717468262,2.2941184043884277,-0.4254816174507141,2.310215473175049,331.1138916015625
662.2705078125,0.003919061738997698,7.9276275634765625,0.1404389888048172,103.95610046386719,104.09774017333984,1.7422949075698853,27.460914611816406,27.460914611816406,14.208064079284668,0.06519589573144913,-0.06519589573144913,1.8001055717468262,2.2941184043884277,-0.42587974667549133,2.3102142810821533,331.1075744628906
662.288818359375,0.03573364019393921,36.70211410522461,0.14044687151908875,103.9583740234375,104.10004425048828,1.7424352169036865,27.460914611816406,27.460914611816406,14.208074569702148,0.06519589573144913,-0.06519589573144913,1.8001055717468262,2.2941184043884277,-0.4266834557056427,2.3102800846099854,331.10418701171875
662.314697265625,0.024905100464820862,23.618974685668945,0.14045575261116028,103.96095275878906,104.1026611328125,1.7424968481063843,27.460914611816406,27.460914611816406,14.208086013793945,0.06519589573144913,-0.06519589573144913,1.8001055717468262,2.2941184043884277,-0.4274069666862488,2.310502052307129,331.1036682128906
662.330810546875,0.0032399906776845455,12.240368843078613,0.14046886563301086,103.964599609375,104.10636138916016,1.7423821687698364,27.460914611816406,27.460914611816406,14.20810604095459,0.06519589573144913,-0.06519589573144913,1.8001055717468262,2.2941184043884277,-0.4269750416278839,2.3105969429016113,331.0986022949219
662.348876953125,0.07890528440475464,70.76734924316406,0.1404772847890854,103.96687316894531,104.10867309570312,1.7427089214324951,27.460914611816406,27.460914611816406,14.208117485046387,0.06519589573144913,-0.06519589573144913,1.8001055717468262,2.2941184043884277,-0.4265799820423126,2.310643196105957,331.0913391113281
662.3662109375,0.012192003428936005,27.599355697631836,0.1404866874217987,103.96942138671875,104.11125183105469,1.742300033569336,27.460914611816406,27.460914611816406,14.208127975463867,0.06519589573144913,-0.06519589573144913,1.8001055717468262,2.2941184043884277,-0.42670178413391113,2.310472249984741,331.08294677734375
662.385009765625,0.005058492533862591,7.276239395141602,0.14049549400806427,103.97186279296875,104.11373901367188,1.74226975440979,27.460914611816406,27.460914611816406,14.208138465881348,0.06519589573144913,-0.06519589573144913,1.8001055717468262,2.2941184043884277,-0.4274383783340454,2.3105034828186035,331.0784912109375
662.40283203125,0.0958452895283699,70.13585662841797,0.14050517976284027,103.97451782226562,104.1164321899414,1.7427120208740234,27.460914611816406,27.460914611816406,14.208151817321777,0.06519589573144913,-0.06519589573144913,1.8001055717468262,2.2941184043884277,-0.4281853139400482,2.3107128143310547,331.0776062011719
662.42041015625,0.025099292397499084,23.976789474487305,0.14051423966884613,103.9770278930664,104.11898040771484,1.7425537109375,27.460914611816406,27.460914611816406,14.20816421508789,0.06519589573144913,-0.06519589573144913,1.8001055717468262,2.2941184043884277,-0.4281182289123535,2.310932159423828,331.0754699707031
662.43310546875,0.005693626124411821,5.134262561798096,0.14052355289459229,103.97950744628906,104.12149810791016,1.742593765258789,27.460914611816406,27.460914611816406,14.208174705505371,0.06519589573144913,-0.06519589573144913,1.8001055717468262,2.2941184043884277,-0.4276356101036072,2.3111016750335693,331.0688781738281
662.451904296875,0.05796809121966362,68.25186920166016,0.1405305564403534,103.9813003540039,104.1233139038086,1.742789626121521,27.460914611816406,27.460914611816406,14.208181381225586,0.06519589573144913,-0.06519589573144913,1.8001055717468262,2.2941184043884277,-0.4274895191192627,2.311119318008423,331.0627136230469
662.467041015625,0.058560799807310104,58.9328498840332,0.1405411660671234,103.98395538330078,104.12600708007812,1.7424647808074951,27.460914611816406,27.460914611816406,14.20819091796875,0.06519589573144913,-0.06519589573144913,1.8001055717468262,2.2941184043884277,-0.42789751291275024,2.310809373855591,331.0555114746094
662.485595703125,0.047748297452926636,44.63187789916992,0.14054931700229645,103.98609161376953,104.128173828125,1.7425057888031006,27.460914611816406,27.460914611816406,14.208197593688965,0.06519589573144913,-0.06519589573144913,1.8001055717468262,2.2941184043884277,-0.428587943315506,2.3109545707702637,331.0530700683594
662.503662109375,0.014963764697313309,4.304001331329346,0.14055925607681274,103.98870849609375,104.13082885742188,1.7425217628479004,27.460914611816406,27.460914611816406,14.208205223083496,0.06519589573144913,-0.06519589573144913,1.8001055717468262,2.2941184043884277,-0.4290885925292969,2.3112285137176514,331.0523376464844
662.51708984375,0.09113302826881409,70.80743408203125,0.1405695378780365,103.99125671386719,104.13341522216797,1.7429332733154297,27.460914611816406,27.460914611816406,14.208220481872559,0.06519589573144913,-0.06519589573144913,1.8001055717468262,2.2941184043884277,-0.42875367403030396,2.3114535808563232,331.04803466796875
662.53564453125,0.02548067644238472,24.928997039794922,0.1405770629644394,103.99315643310547,104.13533782958984,1.7428584098815918,27.460914611816406,27.460914611816406,14.208229064941406,0.06519589573144913,-0.06519589573144913,1.8001055717468262,2.2941184043884277,-0.4284643232822418,2.3116769790649414,331.0422058105469
662.551513671875,-0.002270474098622799,5.105349063873291,0.1405879557132721,103.99577331542969,104.13799285888672,1.7427332401275635,27.460914611816406,27.460914611816406,14.208237648010254,0.06519589573144913,-0.06519589573144913,1.8001055717468262,2.2941184043884277,-0.4285399317741394,2.311720848083496,331.03338623046875
662.56494140625,0.06856314092874527,69.42581939697266,0.14059770107269287,103.99801635742188,104.14027404785156,1.7428722381591797,27.460914611816406,27.460914611816406,14.208243370056152,0.06519589573144913,-0.06519589573144913,1.8001055717468262,2.2941184043884277,-0.4291427433490753,2.3116679191589355,331.0282897949219
662.583984375,0.027398185804486275,30.79410171508789,0.14060580730438232,103.99991607666016,104.14219665527344,1.7427318096160889,27.460914611816406,27.460914611816406,14.208248138427734,0.06519589573144913,-0.06519589573144913,1.8001055717468262,2.2941184043884277,-0.42979586124420166,2.3117868900299072,331.0265808105469
662.59912109375,0.008635931648314,5.311346530914307,0.14061765372753143,104.00260162353516,104.14492797851562,1.7426949739456177,27.460914611816406,27.460914611816406,14.208256721496582,0.06519589573144913,-0.06519589573144913,1.8001055717468262,2.2941184043884277,-0.430245041847229,2.3120031356811523,331.0257263183594
662.6142578125,0.0745333656668663,69.55565643310547,0.14062759280204773,104.00474548339844,104.14710235595703,1.7429639101028442,27.460914611816406,27.460914611816406,14.208264350891113,0.06519589573144913,-0.06519589573144913,1.8001055717468262,2.2941184043884277,-0.4299602806568146,2.3121259212493896,331.02203369140625
662.631103515625,0.01876680739223957,28.978769302368164,0.14063768088817596,104.00688171386719,104.1492691040039,1.742710828781128,27.460914611816406,27.460914611816406,14.208273887634277,0.06519589573144913,-0.06519589573144913,1.8001055717468262,2.2941184043884277,-0.4296046495437622,2.312143087387085,331.01556396484375
662.6474609375,-0.0005716448067687452,6.595311641693115,0.14064909517765045,104.00926208496094,104.15168762207031,1.742584466934204,27.460914611816406,27.460914611816406,14.20827865600586,0.06519589573144913,-0.06519589573144913,1.8001055717468262,2.2941184043884277,-0.4296550452709198,2.3121280670166016,331.007568359375
662.666748046875,0.07342397421598434,69.18472290039062,0.1406603902578354,104.0115737915039,104.1540298461914,1.7427897453308105,27.460914611816406,27.460914611816406,14.208285331726074,0.06519589573144913,-0.06519589573144913,1.8001055717468262,2.2941184043884277,-0.4302673935890198,2.3121187686920166,331.00238037109375
662.6845703125,0.021437902003526688,28.777753829956055,0.14067372679710388,104.01429748535156,104.15679931640625,1.7423673868179321,27.460914611816406,27.460914611816406,14.208288192749023,0.06519589573144913,-0.06519589573144913,1.8001055717468262,2.2941184043884277,-0.4310787618160248,2.3120148181915283,331.00067138671875
662.70263671875,0.012009636498987675,5.954440593719482,0.14068596065044403,104.0168228149414,104.15936279296875,1.742431640625,27.460914611816406,27.460914611816406,14.208294868469238,0.06519589573144913,-0.06519589573144913,1.8001055717468262,2.2941184043884277,-0.43120935559272766,2.312236785888672,330.99932861328125
662.720703125,0.08770225197076797,70.15933990478516,0.14069880545139313,104.01937866210938,104.16194152832031,1.7428169250488281,27.465662002563477,27.465662002563477,14.208305358886719,0.06519589573144913,-0.06519589573144913,1.8001055717468262,2.2941184043884277,-0.43072497844696045,2.3123981952667236,330.99322509765625
662.73876953125,0.01307778712362051,26.023935317993164,0.1407116800546646,104.02193450927734,104.16454315185547,1.7424488067626953,27.465662002563477,27.465662002563477,14.208311080932617,0.06519589573144913,-0.06519589573144913,1.8001055717468262,2.2941184043884277,-0.43048691749572754,2.312330484390259,330.9843444824219
662.7578125,-0.0005128169432282448,6.6896796226501465,0.1407245695590973,104.02449035644531,104.1671371459961,1.7423394918441772,27.465662002563477,27.465662002563477,14.208313941955566,0.06519589573144913,-0.06519589573144913,1.8001055717468262,2.2941184043884277,-0.4309798777103424,2.3122973442077637,330.9770202636719
662.77587890625,0.09054052084684372,70.18765258789062,0.14073817431926727,104.02718353271484,104.16986846923828,1.742661952972412,27.465662002563477,27.465662002563477,14.208318710327148,0.06519589573144913,-0.06519589573144913,1.8001055717468262,2.2941184043884277,-0.43189969658851624,2.3123667240142822,330.9740295410156
662.798095703125,0.0262606181204319,25.124265670776367,0.1407509297132492,104.02973937988281,104.17245483398438,1.7424607276916504,27.465662002563477,27.465662002563477,14.208325386047363,0.06519589573144913,-0.06519589573144913,1.8001055717468262,2.2941184043884277,-0.4323512315750122,2.3125460147857666,330.9735107421875
662.822998046875,0.0003654409374576062,3.484699010848999,0.1407669335603714,104.03288269042969,104.17565155029297,1.7424513101577759,27.465662002563477,27.465662002563477,14.208333015441895,0.06519589573144913,-0.06519589573144913,1.8001055717468262,2.2941184043884277,-0.4318446218967438,2.312734365463257,330.9673156738281
662.8408203125,0.10627555102109909,72.06564331054688,0.14078564941883087,104.03640747070312,104.17922973632812,1.7426813840866089,27.465662002563477,27.465662002563477,14.208344459533691,0.06519589573144913,-0.06519589573144913,1.8001055717468262,2.2941184043884277,-0.43156081438064575,2.312553882598877,330.954833984375
662.8603515625,0.019283253699541092,24.14887237548828,0.14079828560352325,104.03892517089844,104.1817855834961,1.7424527406692505,27.465662002563477,27.465662002563477,14.208345413208008,0.06519589573144913,-0.06519589573144913,1.8001055717468262,2.2941184043884277,-0.4322243928909302,2.3126823902130127,330.94769287109375
662.881103515625,0.006197994574904442,5.452214241027832,0.14081232249736786,104.04169464111328,104.1845932006836,1.742440104484558,27.465662002563477,27.465662002563477,14.208348274230957,0.06886345148086548,-0.06886345148086548,1.8001055717468262,2.2941184043884277,-0.4329226315021515,2.3128366470336914,330.9449768066406
662.900634765625,0.10699549317359924,72.22586822509766,0.14082767069339752,104.04463195800781,104.18756866455078,1.7428810596466064,27.465662002563477,27.465662002563477,14.208355903625488,0.07570147514343262,-0.07570147514343262,1.8001055717468262,2.2941184043884277,-0.4318441152572632,2.3130745887756348,330.94488525390625
662.920654296875,0.01580796018242836,20.78673553466797,0.14084219932556152,104.04739379882812,104.19037628173828,1.7425678968429565,27.465662002563477,27.465662002563477,14.20836067199707,0.07991499453783035,-0.07991499453783035,1.8001055717468262,2.2941184043884277,-0.4284633696079254,2.313220262527466,330.9400939941406
662.938720703125,-0.001638177316635847,4.721120357513428,0.1408575177192688,104.05023193359375,104.19325256347656,1.7425053119659424,27.465662002563477,27.465662002563477,14.208367347717285,0.07991499453783035,-0.07991499453783035,1.8001055717468262,2.2941184043884277,-0.4241504967212677,2.313270330429077,330.9306945800781
662.956787109375,0.07934112101793289,71.28301239013672,0.14087161421775818,104.05278778076172,104.19585418701172,1.7426987886428833,27.465662002563477,27.465662002563477,14.208369255065918,0.07570147514343262,-0.07570147514343262,1.8001055717468262,2.2941184043884277,-0.4209275543689728,2.313190460205078,330.9229736328125
662.974365234375,0.02114993892610073,28.168909072875977,0.14088545739650726,104.05535125732422,104.19844818115234,1.7423644065856934,27.465662002563477,27.465662002563477,14.20837116241455,0.06886345148086548,-0.06886345148086548,1.8001055717468262,2.2941184043884277,-0.4189808666706085,2.313162326812744,330.9195251464844
662.993408203125,0.013909884728491306,6.2215423583984375,0.14089886844158173,104.0578384399414,104.20097351074219,1.7424378395080566,27.465662002563477,27.465662002563477,14.2083740234375,0.06519589573144913,-0.06519589573144913,1.8001055717468262,2.2941184043884277,-0.4179513156414032,2.31339693069458,330.9192199707031
663.014404296875,0.09749867022037506,70.89336395263672,0.14091378450393677,104.06053924560547,104.20372009277344,1.7428985834121704,27.465662002563477,27.465662002563477,14.208382606506348,0.06519589573144913,-0.06519589573144913,1.8001055717468262,2.2941184043884277,-0.4167729318141937,2.3136653900146484,330.9158630371094
663.03125,0.0064667449332773685,22.74507713317871,0.14093047380447388,104.06351470947266,104.20673370361328,1.7423455715179443,27.465662002563477,27.465662002563477,14.208385467529297,0.06519589573144913,-0.06519589573144913,1.8001055717468262,2.2941184043884277,-0.41571319103240967,2.3134970664978027,330.9066467285156
663.047607421875,-0.0007404960342682898,7.043982982635498,0.14094391465187073,104.06590270996094,104.20915985107422,1.742266058921814,27.465662002563477,27.465662002563477,14.208386421203613,0.06519589573144913,-0.06519589573144913,1.8001055717468262,2.2941184043884277,-0.41564980149269104,2.3134450912475586,330.89862060546875
663.064453125,0.07651757448911667,69.10015869140625,0.14095690846443176,104.06822204589844,104.21150970458984,1.7425464391708374,27.465662002563477,27.465662002563477,14.20838737487793,0.06519589573144913,-0.06519589573144913,1.8001055717468262,2.2941184043884277,-0.41625553369522095,2.313477039337158,330.8941345214844
663.0810546875,0.028599673882126808,29.274703979492188,0.14097008109092712,104.07061004638672,104.21393585205078,1.7423646450042725,27.465662002563477,27.465662002563477,14.208388328552246,0.06519589573144913,-0.06519589573144913,1.8001055717468262,2.2941184043884277,-0.41693663597106934,2.313579559326172,330.8930358886719
663.10302734375,0.016429832205176353,5.969367504119873,0.14098301529884338,104.07296752929688,104.21632385253906,1.742490291595459,27.465662002563477,27.465662002563477,14.208391189575195,0.06519589573144913,-0.06519589573144913,1.8001055717468262,2.2941184043884277,-0.41707077622413635,2.313876152038574,330.89202880859375
663.117919921875,0.1053454726934433,71.55925750732422,0.14100077748298645,104.07608032226562,104.219482421875,1.7429578304290771,27.465662002563477,27.465662002563477,14.208395004272461,0.06519589573144913,-0.06519589573144913,1.8001055717468262,2.2941184043884277,-0.41648128628730774,2.314096450805664,330.8844909667969
663.136474609375,0.021306883543729782,21.04445457458496,0.1410125494003296,104.07819366455078,104.22163391113281,1.74284827709198,27.465662002563477,27.465662002563477,14.208395957946777,0.06519589573144913,-0.06519589573144913,1.8001055717468262,2.2941184043884277,-0.4163784384727478,2.314354181289673,330.8772888183594
663.15478515625,-0.00016481248894706368,4.94840669631958,0.14102771878242493,104.08082580566406,104.22429656982422,1.7427407503128052,27.465662002563477,27.465662002563477,14.208391189575195,0.06519589573144913,-0.06519589573144913,1.8001055717468262,2.2941184043884277,-0.41695088148117065,2.314434289932251,330.8706970214844
663.172607421875,0.08568479865789413,70.68303680419922,0.14104323089122772,104.08342742919922,104.2269287109375,1.74294912815094,27.465662002563477,27.465662002563477,14.208392143249512,0.06519589573144913,-0.06519589573144913,1.8001055717468262,2.2941184043884277,-0.4177795350551605,2.3144760131835938,330.8686828613281
663.190673828125,0.021862469613552094,25.026569366455078,0.14105838537216187,104.08595275878906,104.22949981689453,1.7426382303237915,27.465662002563477,27.465662002563477,14.208392143249512,0.06519589573144913,-0.06519589573144913,1.8001055717468262,2.2941184043884277,-0.4180578589439392,2.3145816326141357,330.8680725097656
663.20849609375,0.0053590768948197365,5.157937049865723,0.14107410609722137,104.08851623535156,104.23210144042969,1.7426267862319946,27.465662002563477,27.465662002563477,14.208391189575195,0.06519589573144913,-0.06519589573144913,1.8001055717468262,2.2941184043884277,-0.4176102876663208,2.314742088317871,330.8630676269531
663.231201171875,0.07831905037164688,70.03889465332031,0.1410900205373764,104.09104919433594,104.23466491699219,1.742854356765747,27.465662002563477,27.465662002563477,14.208391189575195,0.06519589573144913,-0.06519589573144913,1.8001055717468262,2.2941184043884277,-0.4172718822956085,2.314741849899292,330.85479736328125
663.24755859375,0.004983376245945692,26.641468048095703,0.14111042022705078,104.09427642822266,104.2379379272461,1.742039680480957,27.465662002563477,27.465662002563477,14.208389282226562,0.06519589573144913,-0.06519589573144913,1.8001055717468262,2.2941184043884277,-0.41767874360084534,2.3142096996307373,330.8453369140625
663.264404296875,0.008106360211968422,8.093419075012207,0.1411246657371521,104.09659576416016,104.24029541015625,1.7420498132705688,27.465662002563477,27.465662002563477,14.20838737487793,0.06519589573144913,-0.06519589573144913,1.8001055717468262,2.2941184043884277,-0.41845574975013733,2.3142454624176025,330.84246826171875
663.281005859375,0.09171369671821594,69.2778091430664,0.1411391794681549,104.09899139404297,104.24272918701172,1.7425373792648315,27.465662002563477,27.465662002563477,14.20838737487793,0.06519589573144913,-0.06519589573144913,1.8001055717468262,2.2941184043884277,-0.41903844475746155,2.314511299133301,330.8421936035156
663.299072265625,0.030379459261894226,26.260061264038086,0.14115329086780548,104.10134887695312,104.2451171875,1.7424758672714233,27.465662002563477,27.465662002563477,14.208388328552246,0.06519589573144913,-0.06519589573144913,1.8001055717468262,2.2941184043884277,-0.4188547134399414,2.314772129058838,330.839599609375
663.31591796875,0.0060344901867210865,5.041239261627197,0.14116892218589783,104.10391235351562,104.24771881103516,1.7425259351730347,27.465662002563477,27.465662002563477,14.208390235900879,0.06519589573144913,-0.06519589573144913,1.8001055717468262,2.2941184043884277,-0.4183904826641083,2.3149657249450684,330.8323974609375
663.331298828125,0.07461933046579361,69.57449340820312,0.14118380844593048,104.10630798339844,104.25015258789062,1.742766261100769,27.465662002563477,27.465662002563477,14.208390235900879,0.06519589573144913,-0.06519589573144913,1.8001055717468262,2.2941184043884277,-0.418367475271225,2.314974069595337,330.8244323730469
663.34765625,0.02135940082371235,29.556427001953125,0.14119715988636017,104.10848999023438,104.25236511230469,1.7425328493118286,27.465662002563477,27.465662002563477,14.208385467529297,0.06519589573144913,-0.06519589573144913,1.8001055717468262,2.2941184043884277,-0.4189007580280304,2.3149964809417725,330.8193359375
663.3642578125,0.010549318045377731,6.865529537200928,0.1412113755941391,104.1108169555664,104.25473022460938,1.7425308227539062,27.465662002563477,27.465662002563477,14.208379745483398,0.06519589573144913,-0.06519589573144913,1.8001055717468262,2.2941184043884277,-0.41966187953948975,2.3151493072509766,330.81744384765625
663.38134765625,0.0884908065199852,70.07154083251953,0.14122606813907623,104.11317443847656,104.25711822509766,1.7429203987121582,27.465662002563477,27.465662002563477,14.208380699157715,0.07570147514343262,-0.07570147514343262,1.8001055717468262,2.2941184043884277,-0.4192695915699005,2.3153951168060303,330.81695556640625
663.403076171875,0.022966545075178146,26.206157684326172,0.14124131202697754,104.11560821533203,104.25958251953125,1.7426912784576416,27.465662002563477,27.465662002563477,14.208379745483398,0.09509766101837158,-0.09509766101837158,1.8001055717468262,2.2941184043884277,-0.4156810939311981,2.3155264854431152,330.8127746582031
663.427978515625,0.0006612901925109327,5.172237873077393,0.14126113057136536,104.11869812011719,104.2627182006836,1.7426021099090576,27.465662002563477,27.465662002563477,14.208379745483398,0.13460573554039001,-0.13460573554039001,1.8001055717468262,2.2941184043884277,-0.40328457951545715,2.3155970573425293,330.802978515625
663.44775390625,0.11127331107854843,72.55413055419922,0.14128424227237701,104.12223815917969,104.26631164550781,1.7428702116012573,27.465662002563477,27.465662002563477,14.208379745483398,0.13460573554039001,-0.13460573554039001,1.8001055717468262,2.2941184043884277,-0.38205209374427795,2.3155415058135986,330.794677734375
663.471435546875,0.03347940742969513,24.65047836303711,0.14130185544490814,104.12504577636719,104.26915740966797,1.7427881956100464,27.465662002563477,27.465662002563477,14.208377838134766,0.13460573554039001,-0.13460573554039001,1.8001055717468262,2.2941184043884277,-0.3627328872680664,2.3159267902374268,330.793212890625
663.4873046875,0.02707616612315178,17.950721740722656,0.1413237750530243,104.12841796875,104.27257537841797,1.7429115772247314,27.465662002563477,27.465662002563477,14.208377838134766,0.12024392187595367,-0.12024392187595367,1.8001055717468262,2.2941184043884277,-0.33939895033836365,2.316376209259033,330.7947998046875
663.50390625,0.0993087962269783,72.10977172851562,0.14133895933628082,104.13067626953125,104.27487182617188,1.743445634841919,27.465662002563477,27.465662002563477,14.208377838134766,0.11348988115787506,-0.11348988115787506,1.8001055717468262,2.2941184043884277,-0.32425737380981445,2.316824436187744,330.79290771484375
663.520751953125,0.024561405181884766,25.29570198059082,0.1413552612066269,104.13304138183594,104.27727508544922,1.7432488203048706,27.465662002563477,27.465662002563477,14.208374977111816,0.09509766101837158,-0.09509766101837158,1.8001055717468262,2.2941184043884277,-0.31053897738456726,2.3170676231384277,330.7867126464844
663.54052734375,0.004417202901095152,5.362659454345703,0.14137239754199982,104.13543701171875,104.27970123291016,1.743166208267212,27.465662002563477,27.465662002563477,14.208368301391602,0.08964825421571732,-0.08964825421571732,1.8001055717468262,2.2941184043884277,-0.29977962374687195,2.317200183868408,330.7791748046875
663.56201171875,0.09140434861183167,72.89108276367188,0.14139318466186523,104.13825225830078,104.28256225585938,1.7433290481567383,27.465662002563477,27.465662002563477,14.208358764648438,0.06886345148086548,-0.06886345148086548,1.8001055717468262,2.2941184043884277,-0.2922137975692749,2.3172197341918945,330.77410888671875
663.581298828125,0.010289805941283703,22.404499053955078,0.14141617715358734,104.14131927490234,104.2856674194336,1.7426494359970093,27.465662002563477,27.465662002563477,14.208348274230957,0.06519589573144913,-0.06519589573144913,1.8001055717468262,2.2941184043884277,-0.2883930504322052,2.3170688152313232,330.7737121582031
663.60302734375,0.006461169105023146,4.9112019538879395,0.14143717288970947,104.1440658569336,104.2884521484375,1.7426340579986572,27.465662002563477,27.465662002563477,14.208343505859375,0.06519589573144913,-0.06519589573144913,1.8001055717468262,2.2941184043884277,-0.28624898195266724,2.3172388076782227,330.7725524902344
663.619384765625,0.09951560944318771,72.06219482421875,0.14146141707897186,104.14716339111328,104.2916030883789,1.7429591417312622,27.465662002563477,27.465662002563477,14.208334922790527,0.06519589573144913,-0.06519589573144913,1.8001055717468262,2.2941184043884277,-0.2844299376010895,2.317305088043213,330.764892578125
663.636962890625,0.015663716942071915,22.273719787597656,0.14147934317588806,104.14949798583984,104.2939682006836,1.7427278757095337,27.465662002563477,27.465662002563477,14.208327293395996,0.06519589573144913,-0.06519589573144913,1.8001055717468262,2.2941184043884277,-0.283947229385376,2.3174502849578857,330.7576599121094
663.65625,0.0028308772016316652,5.869901180267334,0.1414988487958908,104.1520004272461,104.2965087890625,1.742659330368042,27.465662002563477,27.465662002563477,14.208314895629883,0.06519589573144913,-0.06519589573144913,1.8001055717468262,2.2941184043884277,-0.284324586391449,2.317535877227783,330.7532653808594
663.671630859375,0.0948091521859169,70.84890747070312,0.14152060449123383,104.15475463867188,104.29930114746094,1.742981195449829,27.465662002563477,27.465662002563477,14.208303451538086,0.06519589573144913,-0.06519589573144913,1.8001055717468262,2.2941184043884277,-0.2849465012550354,2.317676067352295,330.7531433105469
663.68701171875,0.029913999140262604,23.29987144470215,0.14153775572776794,104.15695190429688,104.30152130126953,1.742896318435669,27.465662002563477,27.465662002563477,14.208296775817871,0.06519589573144913,-0.06519589573144913,1.8001055717468262,2.2941184043884277,-0.28499722480773926,2.317997932434082,330.7536926269531
663.7041015625,0.012964078225195408,5.007182598114014,0.1415553092956543,104.15914154052734,104.30375671386719,1.7429744005203247,27.465662002563477,27.465662002563477,14.208290100097656,0.06519589573144913,-0.06519589573144913,1.8001055717468262,2.2941184043884277,-0.28448930382728577,2.3182778358459473,330.75079345703125
663.72021484375,0.07886713743209839,69.88414764404297,0.1415753960609436,104.16158294677734,104.30622863769531,1.743227481842041,27.465662002563477,27.465662002563477,14.208283424377441,0.06519589573144913,-0.06519589573144913,1.8001055717468262,2.2941184043884277,-0.2839735448360443,2.318394899368286,330.7445373535156
663.73388671875,0.0138013307005167,26.86715316772461,0.14159439504146576,104.16388702392578,104.30855560302734,1.742864727973938,27.460914611816406,27.460914611816406,14.208271026611328,0.06519589573144913,-0.06519589573144913,1.8001055717468262,2.2941184043884277,-0.283983439207077,2.3183727264404297,330.7386779785156
663.7529296875,0.007160594221204519,7.60304069519043,0.14161060750484467,104.16584014892578,104.31053924560547,1.7428090572357178,27.460914611816406,27.460914611816406,14.208260536193848,0.06519589573144913,-0.06519589573144913,1.8001055717468262,2.2941184043884277,-0.2844069302082062,2.318450927734375,330.7361755371094
663.77392578125,0.07088001817464828,54.5794677734375,0.141633540391922,104.1685562133789,104.31330108642578,1.743045449256897,27.460914611816406,27.460914611816406,14.208247184753418,0.06519589573144913,-0.06519589573144913,1.8001055717468262,2.2941184043884277,-0.28502029180526733,2.3186376094818115,330.736572265625
663.791748046875,0.10193593800067902,69.88137817382812,0.1416591852903366,104.17156219482422,104.31634521484375,1.7432013750076294,27.460914611816406,27.460914611816406,14.208237648010254,0.06519589573144913,-0.06519589573144913,1.8001055717468262,2.2941184043884277,-0.2847885489463806,2.3188893795013428,330.736572265625
663.814697265625,0.017041107639670372,21.924678802490234,0.14168111979961395,104.17410278320312,104.31892395019531,1.7429330348968506,27.460914611816406,27.460914611816406,14.208227157592773,0.06519589573144913,-0.06519589573144913,1.8001055717468262,2.2941184043884277,-0.28406643867492676,2.319071054458618,330.731689453125
663.83642578125,-0.010211787186563015,6.290606498718262,0.1417100578546524,104.1773910522461,104.32225799560547,1.742645025253296,27.460914611816406,27.460914611816406,14.208211898803711,0.06519589573144913,-0.06519589573144913,1.8001055717468262,2.2941184043884277,-0.28369516134262085,2.3189916610717773,330.7223815917969
663.850830078125,0.09407906234264374,71.27081298828125,0.14173775911331177,104.18049621582031,104.32540130615234,1.7428101301193237,27.460914611816406,27.460914611816406,14.208194732666016,0.06519589573144913,-0.06519589573144913,1.8001055717468262,2.2941184043884277,-0.2843233048915863,2.318849802017212,330.7172546386719
663.869140625,0.03215472027659416,24.13552474975586,0.14175549149513245,104.18255615234375,104.3274917602539,1.742790699005127,27.460914611816406,27.460914611816406,14.208181381225586,0.06519589573144913,-0.06519589573144913,1.8001055717468262,2.2941184043884277,-0.28491172194480896,2.319183111190796,330.7172546386719
663.8876953125,0.014498431235551834,4.144472122192383,0.1417783945798874,104.18517303466797,104.33015441894531,1.7429131269454956,27.460914611816406,27.460914611816406,14.208168983459473,0.06519589573144913,-0.06519589573144913,1.8001055717468262,2.2941184043884277,-0.28508779406547546,2.319566488265991,330.71832275390625
663.90478515625,0.0915561318397522,71.12393951416016,0.14180223643779755,104.18782806396484,104.33284759521484,1.7432650327682495,27.460914611816406,27.460914611816406,14.208158493041992,0.06519589573144913,-0.06519589573144913,1.8001055717468262,2.2941184043884277,-0.2844483554363251,2.3197810649871826,330.71490478515625
663.92431640625,0.011662152595818043,23.147994995117188,0.14182430505752563,104.19027709960938,104.3353271484375,1.7429019212722778,27.460914611816406,27.460914611816406,14.208147048950195,0.06519589573144913,-0.06519589573144913,1.8001055717468262,2.2941184043884277,-0.2839444875717163,2.3198163509368896,330.70867919921875
663.93994140625,-0.005033853463828564,5.433788776397705,0.14184978604316711,104.19306945800781,104.3381576538086,1.7427027225494385,27.460914611816406,27.460914611816406,14.208131790161133,0.06519589573144913,-0.06519589573144913,1.8001055717468262,2.2941184043884277,-0.2840794026851654,2.319777011871338,330.7022399902344
663.954833984375,0.07124324887990952,69.58892059326172,0.14187034964561462,104.1953125,104.34043884277344,1.7428836822509766,27.460914611816406,27.460914611816406,14.208118438720703,0.06519589573144913,-0.06519589573144913,1.8001055717468262,2.2941184043884277,-0.28460443019866943,2.3197743892669678,330.7005615234375
663.97265625,0.02937120571732521,29.702468872070312,0.14188967645168304,104.19744110107422,104.34259033203125,1.7427401542663574,27.460914611816406,27.460914611816406,14.208105087280273,0.06519589573144913,-0.06519589573144913,1.8001055717468262,2.2941184043884277,-0.28500062227249146,2.3199210166931152,330.701416015625
663.99365234375,0.011830187402665615,5.183540344238281,0.14191295206546783,104.19999694824219,104.34518432617188,1.7428030967712402,27.460914611816406,27.460914611816406,14.208091735839844,0.06519589573144913,-0.06519589573144913,1.8001055717468262,2.2941184043884277,-0.2847451865673065,2.320201873779297,330.7006530761719
664.0146484375,0.09763927012681961,71.4404067993164,0.1419409066438675,104.2030029296875,104.34823608398438,1.7431641817092896,27.460914611816406,27.460914611816406,14.208078384399414,0.06519589573144913,-0.06519589573144913,1.8001055717468262,2.2941184043884277,-0.2839994430541992,2.3203442096710205,330.6942443847656
664.031982421875,0.0021709762513637543,21.570158004760742,0.1419687718153,104.20600891113281,104.35128784179688,1.7425360679626465,27.460914611816406,27.460914611816406,14.208060264587402,0.06519589573144913,-0.06519589573144913,1.8001055717468262,2.2941184043884277,-0.2838607132434845,2.3201348781585693,330.6862487792969
664.047607421875,0.002124399645254016,6.886287212371826,0.14199160039424896,104.20849609375,104.35381317138672,1.7424681186676025,27.460914611816406,27.460914611816406,14.208044052124023,0.06519589573144913,-0.06519589573144913,1.8001055717468262,2.2941184043884277,-0.284416526556015,2.320133686065674,330.68310546875
664.064208984375,0.08024084568023682,69.373046875,0.14201214909553528,104.21073913574219,104.3560791015625,1.7428054809570312,27.460914611816406,27.460914611816406,14.208032608032227,0.06519589573144913,-0.06519589573144913,1.8001055717468262,2.2941184043884277,-0.2849533259868622,2.3202786445617676,330.68353271484375
664.0810546875,0.029534246772527695,27.56446075439453,0.14203378558158875,104.2131118774414,104.35848999023438,1.7426731586456299,27.460914611816406,27.460914611816406,14.208022117614746,0.06519589573144913,-0.06519589573144913,1.8001055717468262,2.2941184043884277,-0.28494513034820557,2.3204665184020996,330.68426513671875
664.103759765625,0.011082280427217484,5.308631896972656,0.14205583930015564,104.21553039550781,104.36094665527344,1.7427674531936646,27.460914611816406,27.460914611816406,14.208011627197266,0.06519589573144913,-0.06519589573144913,1.8001055717468262,2.2941184043884277,-0.28434044122695923,2.3207249641418457,330.68096923828125
664.118408203125,0.10230309516191483,71.8147201538086,0.1420859396457672,104.21878814697266,104.36424255371094,1.7431246042251587,27.460914611816406,27.460914611816406,14.207995414733887,0.06519589573144913,-0.06519589573144913,1.8001055717468262,2.2941184043884277,-0.28377604484558105,2.320807456970215,330.6723937988281
664.136962890625,0.028215749189257622,26.641538619995117,0.1421048790216446,104.22088623046875,104.36637115478516,1.7430444955825806,27.460914611816406,27.460914611816406,14.207977294921875,0.06519589573144913,-0.06519589573144913,1.8001055717468262,2.2941184043884277,-0.2840191721916199,2.3210790157318115,330.66766357421875
664.154541015625,0.005486811976879835,4.985615253448486,0.14212916791439056,104.22354888916016,104.36907196044922,1.7429898977279663,27.460914611816406,27.460914611816406,14.20796012878418,0.06519589573144913,-0.06519589573144913,1.8001055717468262,2.2941184043884277,-0.28472962975502014,2.3212692737579346,330.666015625
664.1728515625,0.08863531053066254,70.74492645263672,0.14215269684791565,104.22607421875,104.37163543701172,1.743286371231079,27.460914611816406,27.460914611816406,14.207944869995117,0.06519589573144913,-0.06519589573144913,1.8001055717468262,2.2941184043884277,-0.2851245701313019,2.3214426040649414,330.66748046875
664.190673828125,0.01630363054573536,23.29180908203125,0.14217732846736908,104.22869873046875,104.37429809570312,1.7429215908050537,27.460914611816406,27.460914611816406,14.207931518554688,0.06519589573144913,-0.06519589573144913,1.8001055717468262,2.2941184043884277,-0.2846299111843109,2.321509599685669,330.66607666015625
664.20849609375,0.00044960685772821307,5.252449989318848,0.1422015130519867,104.23126220703125,104.37689208984375,1.7428532838821411,27.460914611816406,27.460914611816406,14.207917213439941,0.06519589573144913,-0.06519589573144913,1.8001055717468262,2.2941184043884277,-0.28393852710723877,2.321594715118408,330.66033935546875
664.231201171875,0.07601509988307953,70.00279998779297,0.14222590625286102,104.23381805419922,104.37948608398438,1.7430455684661865,27.460914611816406,27.460914611816406,14.207900047302246,0.06519589573144913,-0.06519589573144913,1.8001055717468262,2.2941184043884277,-0.28375497460365295,2.3215551376342773,330.6535339355469
664.25,0.009222879074513912,26.344623565673828,0.14225682616233826,104.2370834350586,104.38279724121094,1.7422913312911987,27.460914611816406,27.460914611816406,14.207877159118652,0.06519589573144913,-0.06519589573144913,1.8001055717468262,2.2941184043884277,-0.2843436300754547,2.3211183547973633,330.6498107910156
664.26611328125,0.010741468518972397,6.434805870056152,0.14228184521198273,104.23977661132812,104.38553619384766,1.742362380027771,27.460914611816406,27.460914611816406,14.207859992980957,0.06519589573144913,-0.06519589573144913,1.8001055717468262,2.2941184043884277,-0.2847946882247925,2.3212716579437256,330.6510009765625
664.284912109375,0.08685892820358276,69.77581024169922,0.14230312407016754,104.24209594726562,104.38788604736328,1.7428264617919922,27.460914611816406,27.460914611816406,14.207849502563477,0.06519589573144913,-0.06519589573144913,1.8001055717468262,2.2941184043884277,-0.28447797894477844,2.3215250968933105,330.6504211425781
664.302734375,0.017514625564217567,25.938640594482422,0.14232785999774933,104.24479675292969,104.39061737060547,1.7425391674041748,27.460914611816406,27.460914611816406,14.207834243774414,0.06519589573144913,-0.06519589573144913,1.8001055717468262,2.2941184043884277,-0.2836854159832001,2.321531057357788,330.6448974609375
664.320556640625,0.0011876891367137432,6.098323345184326,0.14235103130340576,104.24735260009766,104.39322662353516,1.7425289154052734,27.460914611816406,27.460914611816406,14.207818031311035,0.06519589573144913,-0.06519589573144913,1.8001055717468262,2.2941184043884277,-0.28339287638664246,2.321589946746826,330.6377868652344
664.3388671875,0.08190254122018814,69.80647277832031,0.14237408339977264,104.24991607666016,104.39582061767578,1.7428416013717651,27.460914611816406,27.460914611816406,14.207801818847656,0.06519589573144913,-0.06519589573144913,1.8001055717468262,2.2941184043884277,-0.28381842374801636,2.3216300010681152,330.6334228515625
664.356689453125,0.023444538936018944,26.81581687927246,0.14239735901355743,104.25254821777344,104.39848327636719,1.7425813674926758,27.460914611816406,27.460914611816406,14.207781791687012,0.06519589573144913,-0.06519589573144913,1.8001055717468262,2.2941184043884277,-0.28443530201911926,2.321681261062622,330.6332702636719
664.375,0.013927431777119637,5.432101249694824,0.14241984486579895,104.2551040649414,104.40108489990234,1.7427105903625488,27.460914611816406,27.460914611816406,14.20776653289795,0.06519589573144913,-0.06519589573144913,1.8001055717468262,2.2941184043884277,-0.28448814153671265,2.321967840194702,330.6341552734375
664.39794921875,0.09104731678962708,70.5630874633789,0.1424432098865509,104.25773620605469,104.40374755859375,1.7431433200836182,27.460914611816406,27.460914611816406,14.20775318145752,0.06519589573144913,-0.06519589573144913,1.8001055717468262,2.2941184043884277,-0.28380849957466125,2.3221945762634277,330.6304016113281
664.4189453125,0.00016525521641597152,23.018836975097656,0.14247260987758636,104.26103973388672,104.40709686279297,1.7423855066299438,27.460914611816406,27.460914611816406,14.207732200622559,0.06519589573144913,-0.06519589573144913,1.8001055717468262,2.2941184043884277,-0.2831733822822571,2.321786403656006,330.6213684082031
664.434326171875,-0.004658874124288559,6.076085567474365,0.14249883592128754,104.2640609741211,104.41016387939453,1.742263674736023,27.460914611816406,27.460914611816406,14.207711219787598,0.06519589573144913,-0.06519589573144913,1.8001055717468262,2.2941184043884277,-0.28359338641166687,2.3216710090637207,330.6152038574219
664.452392578125,0.0748520940542221,69.38167572021484,0.14251771569252014,104.26626586914062,104.41239929199219,1.7425824403762817,27.460914611816406,27.460914611816406,14.207695960998535,0.06519589573144913,-0.06519589573144913,1.8001055717468262,2.2941184043884277,-0.2841886878013611,2.321720838546753,330.6144714355469
664.465576171875,0.030372822657227516,28.974124908447266,0.14253950119018555,104.26886749267578,104.41503143310547,1.7424370050430298,27.460914611816406,27.460914611816406,14.20767879486084,0.06519589573144913,-0.06519589573144913,1.8001055717468262,2.2941184043884277,-0.28449109196662903,2.321819305419922,330.61602783203125
664.483642578125,0.022216852754354477,6.8034162521362305,0.14255516231060028,104.27075958251953,104.41695404052734,1.7426512241363525,27.460914611816406,27.460914611816406,14.207671165466309,0.06519589573144913,-0.06519589573144913,1.8001055717468262,2.2941184043884277,-0.2841724455356598,2.3221166133880615,330.61517333984375
664.499267578125,0.09208975732326508,69.7340316772461,0.14257670938968658,104.27336120605469,104.41958618164062,1.7431820631027222,27.460914611816406,27.460914611816406,14.207655906677246,0.06519589573144913,-0.06519589573144913,1.8001055717468262,2.2941184043884277,-0.2834773659706116,2.322431802749634,330.60992431640625
664.514404296875,0.018444575369358063,24.448074340820312,0.14259515702724457,104.27560424804688,104.421875,1.7430057525634766,27.460914611816406,27.460914611816406,14.207640647888184,0.06519589573144913,-0.06519589573144913,1.8001055717468262,2.2941184043884277,-0.28322020173072815,2.3225748538970947,330.6038818359375
664.53125,0.004908029921352863,6.471770763397217,0.14261314272880554,104.27777862548828,104.424072265625,1.742981195449829,27.460914611816406,27.460914611816406,14.207625389099121,0.06519589573144913,-0.06519589573144913,1.8001055717468262,2.2941184043884277,-0.28350555896759033,2.3226747512817383,330.599853515625
664.54736328125,0.08174627274274826,69.69537353515625,0.142633318901062,104.28020477294922,104.4265365600586,1.7432756423950195,27.460914611816406,27.460914611816406,14.207606315612793,0.06519589573144913,-0.06519589573144913,1.8001055717468262,2.2941184043884277,-0.2840866446495056,2.3227994441986084,330.59906005859375
664.564453125,0.024797264486551285,25.816478729248047,0.1426525115966797,104.28252410888672,104.42887878417969,1.7430760860443115,27.460914611816406,27.460914611816406,14.207592010498047,0.06519589573144913,-0.06519589573144913,1.8001055717468262,2.2941184043884277,-0.2843186557292938,2.3229634761810303,330.6000671386719
664.587158203125,0.007598651573061943,4.9764556884765625,0.14267311990261078,104.28498077392578,104.4313735961914,1.7430989742279053,27.460914611816406,27.460914611816406,14.2075777053833,0.06519589573144913,-0.06519589573144913,1.8001055717468262,2.2941184043884277,-0.2838406562805176,2.3231773376464844,330.5977783203125
664.60205078125,0.09894894808530807,71.793701171875,0.14270107448101044,104.28825378417969,104.4346923828125,1.7433712482452393,27.460914611816406,27.460914611816406,14.207557678222656,0.06519589573144913,-0.06519589573144913,1.8001055717468262,2.2941184043884277,-0.2831633388996124,2.323185682296753,330.5894775390625
664.6201171875,0.02175898291170597,24.966075897216797,0.14271891117095947,104.29039764404297,104.4368667602539,1.74322509765625,27.460914611816406,27.460914611816406,14.207541465759277,0.06519589573144913,-0.06519589573144913,1.8001055717468262,2.2941184043884277,-0.2832968831062317,2.323390245437622,330.5840759277344
664.63330078125,0.0020581113640218973,5.232816219329834,0.14274093508720398,104.2929916381836,104.43950653076172,1.7431318759918213,27.460914611816406,27.460914611816406,14.207517623901367,0.06519589573144913,-0.06519589573144913,1.8001055717468262,2.2941184043884277,-0.2839747667312622,2.3235013484954834,330.5815734863281
664.651611328125,0.06516959518194199,69.09091186523438,0.14275725185871124,104.29489135742188,104.4414291381836,1.7433313131332397,27.460914611816406,27.460914611816406,14.207504272460938,0.06519589573144913,-0.06519589573144913,1.8001055717468262,2.2941184043884277,-0.28440937399864197,2.3235890865325928,330.5821838378906
664.66748046875,0.017930880188941956,28.473777770996094,0.14278008043766022,104.29753112792969,104.44409942626953,1.7429040670394897,27.460914611816406,27.460914611816406,14.207487106323242,0.06519589573144913,-0.06519589573144913,1.8001055717468262,2.2941184043884277,-0.284250408411026,2.3234755992889404,330.5820617675781
664.681396484375,0.00571995135396719,6.373958587646484,0.1427997648715973,104.29981994628906,104.44641876220703,1.7429026365280151,27.460914611816406,27.460914611816406,14.207469940185547,0.06519589573144913,-0.06519589573144913,1.8001055717468262,2.2941184043884277,-0.28369396924972534,2.323580503463745,330.5782165527344
664.705322265625,0.06413095444440842,68.4424057006836,0.14281706511974335,104.30181884765625,104.44845581054688,1.7431514263153076,27.460914611816406,27.460914611816406,14.207457542419434,0.06519589573144913,-0.06519589573144913,1.8001055717468262,2.2941184043884277,-0.28336021304130554,2.323638916015625,330.5732421875
664.722900390625,0.0165016558021307,33.3418083190918,0.14284691214561462,104.30526733398438,104.45195007324219,1.7423144578933716,27.460914611816406,27.460914611816406,14.207432746887207,0.06519589573144913,-0.06519589573144913,1.8001055717468262,2.2941184043884277,-0.283517450094223,2.322965383529663,330.5665283203125
664.740234375,0.01840280368924141,17.926176071166992,0.14286787807941437,104.30780029296875,104.45452117919922,1.7423994541168213,27.460914611816406,27.460914611816406,14.207409858703613,0.06519589573144913,-0.06519589573144913,1.8001055717468262,2.2941184043884277,-0.28407537937164307,2.323063373565674,330.56597900390625
664.7529296875,0.02746610715985298,17.92567253112793,0.14288806915283203,104.310302734375,104.45704650878906,1.742682695388794,27.460914611816406,27.460914611816406,14.207392692565918,0.06519589573144913,-0.06519589573144913,1.8001055717468262,2.2941184043884277,-0.28421762585639954,2.3233861923217773,330.5670166015625
664.771240234375,0.024037068709731102,11.08442497253418,0.14290277659893036,104.31212615966797,104.45890045166016,1.7429211139678955,27.460914611816406,27.460914611816406,14.207382202148438,0.06519589573144913,-0.06519589573144913,1.8001055717468262,2.2941184043884277,-0.28384771943092346,2.323686122894287,330.5654602050781
664.787841796875,0.02090827189385891,23.749935150146484,0.14292405545711517,104.31476593017578,104.46157836914062,1.7431049346923828,27.460914611816406,27.460914611816406,14.207365989685059,0.06519589573144913,-0.06519589573144913,1.8001055717468262,2.2941184043884277,-0.28320589661598206,2.323932409286499,330.55950927734375
664.806640625,0.0004860331246163696,5.492401123046875,0.1429433524608612,104.3171615600586,104.46400451660156,1.743066668510437,27.460914611816406,27.460914611816406,14.20734691619873,0.06519589573144913,-0.06519589573144913,1.8001055717468262,2.2941184043884277,-0.2830805480480194,2.3240127563476562,330.5531005859375
664.82470703125,0.08349017053842545,70.49579620361328,0.1429654210805893,104.31986999511719,104.46675109863281,1.7433006763458252,27.460914611816406,27.460914611816406,14.20732593536377,0.06519589573144913,-0.06519589573144913,1.8001055717468262,2.2941184043884277,-0.2836249768733978,2.3240103721618652,330.5494384765625
664.842529296875,0.018478592857718468,24.660451889038086,0.14298637211322784,104.32247161865234,104.46939086914062,1.7429721355438232,27.460914611816406,27.460914611816406,14.207303047180176,0.06519589573144913,-0.06519589573144913,1.8001055717468262,2.2941184043884277,-0.2841854393482208,2.32405161857605,330.5500183105469
664.86474609375,0.008757105097174644,5.029898166656494,0.14300701022148132,104.32504272460938,104.47200012207031,1.7430270910263062,27.460914611816406,27.460914611816406,14.207283973693848,0.06519589573144913,-0.06519589573144913,1.8001055717468262,2.2941184043884277,-0.2840416431427002,2.324265956878662,330.55010986328125
664.88623046875,0.10025915503501892,71.52665710449219,0.14303316175937653,104.3282470703125,104.4752426147461,1.7433958053588867,27.460914611816406,27.460914611816406,14.207262992858887,0.06519589573144913,-0.06519589573144913,1.8001055717468262,2.2941184043884277,-0.28318098187446594,2.3243610858917236,330.54376220703125
664.902099609375,-0.0019269969779998064,20.41934585571289,0.1430581510066986,104.33134460449219,104.4783935546875,1.7427536249160767,27.460914611816406,27.460914611816406,14.207237243652344,0.06519589573144913,-0.06519589573144913,1.8001055717468262,2.2941184043884277,-0.2829453945159912,2.324108839035034,330.53509521484375
664.920654296875,-0.00009774790669325739,7.3867058753967285,0.1430763602256775,104.33363342285156,104.480712890625,1.7426995038986206,27.460914611816406,27.460914611816406,14.2072172164917,0.06519589573144913,-0.06519589573144913,1.8001055717468262,2.2941184043884277,-0.28343304991722107,2.3240625858306885,330.53143310546875
664.938720703125,0.09074803441762924,70.21056365966797,0.143097385764122,104.33631134033203,104.4834213256836,1.743099331855774,27.460914611816406,27.460914611816406,14.207194328308105,0.06519589573144913,-0.06519589573144913,1.8001055717468262,2.2941184043884277,-0.2841361165046692,2.3241868019104004,330.5314636230469
664.956787109375,0.02356007508933544,23.623197555541992,0.1431175321340561,104.33892059326172,104.48606872558594,1.7429238557815552,27.460914611816406,27.460914611816406,14.207175254821777,0.06519589573144913,-0.06519589573144913,1.8001055717468262,2.2941184043884277,-0.2842094898223877,2.3243682384490967,330.53265380859375
664.974609375,0.0062840720638632774,4.527624130249023,0.14313769340515137,104.34152221679688,104.48870849609375,1.743014931678772,27.460914611816406,27.460914611816406,14.207157135009766,0.06519589573144913,-0.06519589573144913,1.8001055717468262,2.2941184043884277,-0.2835278809070587,2.3245935440063477,330.529296875
664.9912109375,0.07860266417264938,70.36962127685547,0.1431577503681183,104.3440933227539,104.49131774902344,1.743299126625061,27.460914611816406,27.460914611816406,14.207139015197754,0.06519589573144913,-0.06519589573144913,1.8001055717468262,2.2941184043884277,-0.2829781770706177,2.3246233463287354,330.5226745605469
665.007568359375,0.012547694146633148,26.710617065429688,0.1431761234998703,104.34648895263672,104.49374389648438,1.742977499961853,27.460914611816406,27.460914611816406,14.20711898803711,0.06519589573144913,-0.06519589573144913,1.8001055717468262,2.2941184043884277,-0.28305381536483765,2.324566602706909,330.5169982910156
665.021240234375,0.004000214394181967,6.819145679473877,0.1431940644979477,104.3488540649414,104.49613952636719,1.7429423332214355,27.460914611816406,27.460914611816406,14.207098007202148,0.06519589573144913,-0.06519589573144913,1.8001055717468262,2.2941184043884277,-0.28360599279403687,2.3246185779571533,330.514892578125
665.039794921875,0.070342518389225,68.75379180908203,0.14320899546146393,104.35082244873047,104.49813842773438,1.743241548538208,27.460914611816406,27.460914611816406,14.207083702087402,0.06519589573144913,-0.06519589573144913,1.8001055717468262,2.2941184043884277,-0.2840201258659363,2.3247487545013428,330.5155029296875
665.054931640625,0.0198000930249691,28.00588035583496,0.14322933554649353,104.35350036621094,104.50086212158203,1.7429078817367554,27.460914611816406,27.460914611816406,14.207063674926758,0.06519589573144913,-0.06519589573144913,1.8001055717468262,2.2941184043884277,-0.28379467129707336,2.324690580368042,330.51495361328125
665.0693359375,0.007398889400064945,6.42755651473999,0.14324575662612915,104.3556900024414,104.5030746459961,1.742965579032898,27.460914611816406,27.460914611816406,14.207046508789062,0.06519589573144913,-0.06519589573144913,1.8001055717468262,2.2941184043884277,-0.28326767683029175,2.3248186111450195,330.5110168457031
665.087646484375,0.06651995331048965,68.5047607421875,0.14326141774654388,104.3577651977539,104.50518035888672,1.7432540655136108,27.460914611816406,27.460914611816406,14.207029342651367,0.06519589573144913,-0.06519589573144913,1.8001055717468262,2.2941184043884277,-0.28295010328292847,2.3248939514160156,330.5057678222656
665.10302734375,0.01289072073996067,29.74417495727539,0.14328113198280334,104.36041259765625,104.50785827636719,1.7428227663040161,27.460914611816406,27.460914611816406,14.20700740814209,0.06519589573144913,-0.06519589573144913,1.8001055717468262,2.2941184043884277,-0.2831064462661743,2.3246676921844482,330.50042724609375
665.117431640625,0.007584345992654562,7.511087894439697,0.14329728484153748,104.36263275146484,104.5101089477539,1.7428407669067383,27.460914611816406,27.460914611816406,14.206989288330078,0.06519589573144913,-0.06519589573144913,1.8001055717468262,2.2941184043884277,-0.2836071848869324,2.3247430324554443,330.4992370605469
665.13525390625,0.077083058655262,68.8143310546875,0.14331236481666565,104.36470794677734,104.51222229003906,1.7432259321212769,27.460914611816406,27.460914611816406,14.206971168518066,0.06519589573144913,-0.06519589573144913,1.8001055717468262,2.2941184043884277,-0.28392452001571655,2.3249378204345703,330.5000915527344
665.15234375,0.020415104925632477,27.06450843811035,0.143330916762352,104.3672866821289,104.51483154296875,1.74298095703125,27.460914611816406,27.460914611816406,14.206953048706055,0.06519589573144913,-0.06519589573144913,1.8001055717468262,2.2941184043884277,-0.2835260033607483,2.324968099594116,330.4984130859375
665.1650390625,0.002340903738513589,5.6823015213012695,0.1433485895395279,104.3697509765625,104.517333984375,1.7429962158203125,27.460914611816406,27.460914611816406,14.206934928894043,0.06519589573144913,-0.06519589573144913,1.8001055717468262,2.2941184043884277,-0.28295642137527466,2.3250648975372314,330.49298095703125
665.183349609375,0.05541956424713135,67.52910614013672,0.14336173236370087,104.37158203125,104.5191879272461,1.7432080507278442,27.460914611816406,27.460914611816406,14.20692253112793,0.06519589573144913,-0.06519589573144913,1.8001055717468262,2.2941184043884277,-0.28279784321784973,2.3250744342803955,330.4882507324219
665.199462890625,0.0803307294845581,71.76039123535156,0.14338059723377228,104.37422943115234,104.5218734741211,1.7430800199508667,27.460914611816406,27.460914611816406,14.20689868927002,0.06519589573144913,-0.06519589573144913,1.8001055717468262,2.2941184043884277,-0.28314998745918274,2.324856758117676,330.48431396484375
665.21435546875,0.02245461195707321,25.844058990478516,0.1433964967727661,104.37655639648438,104.52423095703125,1.7429178953170776,27.460914611816406,27.460914611816406,14.206878662109375,0.06519589573144913,-0.06519589573144913,1.8001055717468262,2.2941184043884277,-0.2836449146270752,2.3249619007110596,330.4844055175781
665.231201171875,0.015268506482243538,6.244462966918945,0.1434110701084137,104.37870788574219,104.52640533447266,1.7430638074874878,27.460914611816406,27.460914611816406,14.206863403320312,0.06519589573144913,-0.06519589573144913,1.8001055717468262,2.2941184043884277,-0.28369390964508057,2.325206756591797,330.48486328125
665.247314453125,0.08386432379484177,69.81780242919922,0.143427774310112,104.38114166259766,104.52887725830078,1.7434908151626587,27.460914611816406,27.460914611816406,14.20684814453125,0.06519589573144913,-0.06519589573144913,1.8001055717468262,2.2941184043884277,-0.28314918279647827,2.3254234790802,330.48150634765625
665.264404296875,0.013488667085766792,25.256412506103516,0.1434435397386551,104.38346862792969,104.53124237060547,1.743235468864441,27.460914611816406,27.460914611816406,14.206829071044922,0.06519589573144913,-0.06519589573144913,1.8001055717468262,2.2941184043884277,-0.2827049195766449,2.3254554271698,330.47564697265625
665.283935546875,-0.0033503426238894463,6.073902606964111,0.14346034824848175,104.38594055175781,104.53374481201172,1.7431310415267944,27.460914611816406,27.460914611816406,14.206808090209961,0.06519589573144913,-0.06519589573144913,1.8001055717468262,2.2941184043884277,-0.28278693556785583,2.3254339694976807,330.4698486328125
665.298095703125,0.08737737685441971,70.70695495605469,0.14347955584526062,104.38875579833984,104.53660583496094,1.7433990240097046,27.460914611816406,27.460914611816406,14.206781387329102,0.06519589573144913,-0.06519589573144913,1.8001055717468262,2.2941184043884277,-0.28343868255615234,2.3254191875457764,330.4677429199219
665.314453125,0.028232498094439507,24.25568962097168,0.14349298179149628,104.39080810546875,104.5386734008789,1.7433539628982544,27.460914611816406,27.460914611816406,14.206761360168457,0.06519589573144913,-0.06519589573144913,1.8001055717468262,2.2941184043884277,-0.283810019493103,2.325692892074585,330.46856689453125
665.331298828125,0.00985924806445837,4.559535026550293,0.14350877702236176,104.3931655883789,104.54106903076172,1.7434418201446533,27.460914611816406,27.460914611816406,14.206744194030762,0.06519589573144913,-0.06519589573144913,1.8001055717468262,2.2941184043884277,-0.2835654020309448,2.325953960418701,330.4673767089844
665.34765625,0.07581938803195953,70.14767456054688,0.14352545142173767,104.39559936523438,104.54354858398438,1.7437098026275635,27.460914611816406,27.460914611816406,14.2067232131958,0.06519589573144913,-0.06519589573144913,1.8001055717468262,2.2941184043884277,-0.2830126881599426,2.326033115386963,330.46240234375
665.364501953125,0.007863804697990417,26.09306526184082,0.14354157447814941,104.39796447753906,104.54593658447266,1.743322491645813,27.460914611816406,27.460914611816406,14.206704139709473,0.06519589573144913,-0.06519589573144913,1.8001055717468262,2.2941184043884277,-0.2828027307987213,2.325930595397949,330.4562683105469
665.381103515625,-0.003366096643730998,6.701016426086426,0.14355812966823578,104.40039825439453,104.54840087890625,1.7431787252426147,27.460914611816406,27.460914611816406,14.206677436828613,0.06519589573144913,-0.06519589573144913,1.8001055717468262,2.2941184043884277,-0.28318244218826294,2.3258678913116455,330.4522705078125
665.40185546875,0.07687219977378845,69.72077178955078,0.14357437193393707,104.40280151367188,104.55083465576172,1.7434405088424683,27.460914611816406,27.460914611816406,14.206655502319336,0.06519589573144913,-0.06519589573144913,1.8001055717468262,2.2941184043884277,-0.28374719619750977,2.325900077819824,330.45196533203125
665.41796875,0.014617104083299637,25.227535247802734,0.14359459280967712,104.40579986572266,104.55388641357422,1.742967128753662,27.460914611816406,27.460914611816406,14.206629753112793,0.06519589573144913,-0.06519589573144913,1.8001055717468262,2.2941184043884277,-0.2837454378604889,2.3257510662078857,330.4530029296875
665.43701171875,0.005955778528004885,6.043918609619141,0.14361000061035156,104.40813446044922,104.55624389648438,1.743037223815918,27.460914611816406,27.460914611816406,14.206612586975098,0.06519589573144913,-0.06519589573144913,1.8001055717468262,2.2941184043884277,-0.28312423825263977,2.3258728981018066,330.449951171875
665.454345703125,0.0836123451590538,70.29685974121094,0.14362818002700806,104.410888671875,104.55903625488281,1.7433933019638062,27.460914611816406,27.460914611816406,14.20659065246582,0.06519589573144913,-0.06519589573144913,1.8001055717468262,2.2941184043884277,-0.2825329601764679,2.325909376144409,330.4428405761719
